{
  "shelters": [
    {
      "id": "Α-4001-0508",
      "lat": 34.69514,
      "lon": 33.04222,
      "type": "ΔΗΜΟΣΙΟ",
      "capacity": "330",
      "signNumber": "0",
      "address": "ΠΟΥΛΙΟΥ & ΚΑΠΟΤΑ 8 ΕΚΚΛΗΣΙΑ ΑΓ. ΕΛΕΥΘΕΡΙΟΥ,ΜΕΣΑ ΓΕΙΤΟΝΙΑ",
      "district": "ΕΠΑΡΧΙΑ ΛΕΜΕΣΟΥ",
      "subDistrict": "ΑΝΑΤΟΛΙΚΗΣ ΛΕΜΕΣΟΥ",
      "image": "Α-4001-0508-BUILDING-S.jpg"
    },
    {
      "id": "Α-3095-2025-4",
      "lat": 34.68710833333333,
      "lon": 33.052588,
      "type": "ΔΗΜΟΣΙΟ",
      "capacity": "-",
      "signNumber": "0",
      "address": "ΑΝΔΡΕΑ ΖΑΚΟΥ 3 ΝΑΟΣ ΑΓ. ΙΩΣΗΦ ΜΝΗΣΤΟΡΟΣ,ΑΓΙΟΣ ΝΙΚΟΛΑΟΣ",
      "district": "ΕΠΑΡΧΙΑ ΛΕΜΕΣΟΥ",
      "subDistrict": "ΑΝΑΤΟΛΙΚΗΣ ΛΕΜΕΣΟΥ",
      "image": "Α-3095-2025-4-BUILDING-S.jpg"
    },
    {
      "id": "Α-3082-0504",
      "lat": 34.703,
      "lon": 33.03602,
      "type": "ΔΗΜΟΣΙΟ",
      "capacity": "70",
      "signNumber": "0",
      "address": "ΙΕΡΟΥ ΛΟΧΟΥ 39, ΑΝΑΤΟΛΙΚΗΣ ΛΕΜΕΣΟΥ",
      "district": "ΕΠΑΡΧΙΑ ΛΕΜΕΣΟΥ",
      "subDistrict": "ΑΝΑΤΟΛΙΚΗΣ ΛΕΜΕΣΟΥ",
      "image": "Α-3082-0504-BUILDING-S.jpg"
    },
    {
      "id": "Α-3020-0004",
      "lat": 34.677747,
      "lon": 33.031446,
      "type": "ΔΗΜΟΣΙΟ",
      "capacity": "14",
      "signNumber": "0004",
      "address": "ΥΠΟΛ. ΝΙΚΟΥ ΠΑΠΑΓΕΩΡΓΙΟΥ 9Α, Λ/ΣΟΣ (ΚΑΘΟΛΙΚΗ)",
      "district": "ΕΠΑΡΧΙΑ ΛΕΜΕΣΟΥ",
      "subDistrict": "ΑΝΑΤΟΛΙΚΗΣ ΛΕΜΕΣΟΥ",
      "image": "Α-3020-0004-BUILDING-S.jpg"
    },
    {
      "id": "Α-3020-0050",
      "lat": 34.680587,
      "lon": 33.031512,
      "type": "ΔΗΜΟΣΙΟ",
      "capacity": "50",
      "signNumber": "0050",
      "address": "ΑΙΟΛΟΥ 20, Λ/ΣΟΣ (ΚΑΘΟΛΙΚΗ)",
      "district": "ΕΠΑΡΧΙΑ ΛΕΜΕΣΟΥ",
      "subDistrict": "ΑΝΑΤΟΛΙΚΗΣ ΛΕΜΕΣΟΥ",
      "image": "Α-3020-0050-BUILDING-S.jpg"
    },
    {
      "id": "Α-3020-0067",
      "lat": 34.682182,
      "lon": 33.031779,
      "type": "ΔΗΜΟΣΙΟ",
      "capacity": "100",
      "signNumber": "0067",
      "address": "ΑΡΧ. ΛΕΟΝΤΙΟΥ Α 183, Λ/ΣΟΣ (ΚΑΘΟΛΙΚΗ)",
      "district": "ΕΠΑΡΧΙΑ ΛΕΜΕΣΟΥ",
      "subDistrict": "ΑΝΑΤΟΛΙΚΗΣ ΛΕΜΕΣΟΥ",
      "image": "Α-3020-0067-BUILDING-S.jpg"
    },
    {
      "id": "Α-3020-0131",
      "lat": 34.682045,
      "lon": 33.032017,
      "type": "ΔΗΜΟΣΙΟ",
      "capacity": "130",
      "signNumber": "0131",
      "address": "ΑΡΧ. ΛΕΟΝΤΙΟΥ Α 181,ΓΚΑΛΑΞΙΑ ΛΕΟΝΤΙΟΥ ΜΠΙΛΤΙΝΚ ΓΚΑΛΑΞΙΑ ΛΕΟΝΤΙΟΥ ΜΠΙΛΤΙΝΚ,Λ/ΣΟΣ (ΚΑΘΟΛΙΚΗ)",
      "district": "ΕΠΑΡΧΙΑ ΛΕΜΕΣΟΥ",
      "subDistrict": "ΑΝΑΤΟΛΙΚΗΣ ΛΕΜΕΣΟΥ",
      "image": "Α-3020-0131-BUILDING-S.jpg"
    },
    {
      "id": "Α-3020-0136",
      "lat": 34.67879,
      "lon": 33.033078,
      "type": "ΔΗΜΟΣΙΟ",
      "capacity": "15",
      "signNumber": "0136",
      "address": "ΑΙΟΛΟΥ 36, Λ/ΣΟΣ (ΚΑΘΟΛΙΚΗ)",
      "district": "ΕΠΑΡΧΙΑ ΛΕΜΕΣΟΥ",
      "subDistrict": "ΑΝΑΤΟΛΙΚΗΣ ΛΕΜΕΣΟΥ",
      "image": "Α-3020-0136-BUILDING-S.jpg"
    },
    {
      "id": "Α-3020-0166",
      "lat": 34.678269,
      "lon": 33.029898,
      "type": "ΔΗΜΟΣΙΟ",
      "capacity": "130",
      "signNumber": "0166",
      "address": "ΤΑΓΜΑΤΑΡΧΟΥ ΠΟΥΛΙΟΥ & ΛΟΧΑΓΟΥ ΚΑΠΟΤΑ, Λ/ΣΟΣ (ΚΑΘΟΛΙΚΗ)",
      "district": "ΕΠΑΡΧΙΑ ΛΕΜΕΣΟΥ",
      "subDistrict": "ΑΝΑΤΟΛΙΚΗΣ ΛΕΜΕΣΟΥ",
      "image": "Α-3020-0166-BUILDING-S.jpg"
    },
    {
      "id": "Α-3020-0167",
      "lat": 34.680014,
      "lon": 33.031092,
      "type": "ΔΗΜΟΣΙΟ",
      "capacity": "75",
      "signNumber": "0167",
      "address": "ΒΑΣΙΛΕΙΟΥ ΑΛΕΞΑΝΔΡΟΥ 8, Λ/ΣΟΣ (ΚΑΘΟΛΙΚΗ)",
      "district": "ΕΠΑΡΧΙΑ ΛΕΜΕΣΟΥ",
      "subDistrict": "ΑΝΑΤΟΛΙΚΗΣ ΛΕΜΕΣΟΥ",
      "image": "Α-3020-0167-BUILDING-S.jpg"
    },
    {
      "id": "Α-3020-0255",
      "lat": 34.682415,
      "lon": 33.03128,
      "type": "ΔΗΜΟΣΙΟ",
      "capacity": "130",
      "signNumber": "0255",
      "address": "ΑΡΧ. ΛΕΟΝΤΙΟΥ Α 187,ΤΣΑΚΟΝ ΚΩΡΤ ΤΣΑΚΟΝ ΚΩΡΤ,Λ/ΣΟΣ (ΚΑΘΟΛΙΚΗ)",
      "district": "ΕΠΑΡΧΙΑ ΛΕΜΕΣΟΥ",
      "subDistrict": "ΑΝΑΤΟΛΙΚΗΣ ΛΕΜΕΣΟΥ",
      "image": "Α-3020-0255-BUILDING-S.jpg"
    },
    {
      "id": "Α-3020-0256",
      "lat": 34.682552,
      "lon": 33.031099,
      "type": "ΔΗΜΟΣΙΟ",
      "capacity": "130",
      "signNumber": "0256",
      "address": "ΑΡΧ. ΛΕΟΝΤΙΟΥ Α 189,ΛΑΙΚΗ ΕΠΙΠΛΑΓΟΡΑ ΛΑΙΚΗ ΕΠΙΠΛΑΓΟΡΑ,Λ/ΣΟΣ (ΚΑΘΟΛΙΚΗ)",
      "district": "ΕΠΑΡΧΙΑ ΛΕΜΕΣΟΥ",
      "subDistrict": "ΑΝΑΤΟΛΙΚΗΣ ΛΕΜΕΣΟΥ",
      "image": "Α-3020-0256-BUILDING-S.jpg"
    },
    {
      "id": "Α-3021-0304Α",
      "lat": 34.685458,
      "lon": 33.037361,
      "type": "ΔΗΜΟΣΙΟ",
      "capacity": "70",
      "signNumber": "0304",
      "address": "ΑΓ. ΦΥΛΑΞΕΩΣ 59 & ΕΠΙΣΚΟΠΟΥ ΛΑΥΡΕΝΤΙΟΥ, Λ/ΣΟΣ (ΚΑΘΟΛΙΚΗ)",
      "district": "ΕΠΑΡΧΙΑ ΛΕΜΕΣΟΥ",
      "subDistrict": "ΑΝΑΤΟΛΙΚΗΣ ΛΕΜΕΣΟΥ",
      "image": "Α-3021-0304Α-BUILDING-S.jpg"
    },
    {
      "id": "Α-3021-0304Β",
      "lat": 34.685458,
      "lon": 33.037361,
      "type": "ΔΗΜΟΣΙΟ",
      "capacity": "70",
      "signNumber": "0304",
      "address": "ΑΓ. ΦΥΛΑΞΕΩΣ 59 & ΕΠΙΣΚΟΠΟΥ ΛΑΥΡΕΝΤΙΟΥ, Λ/ΣΟΣ (ΚΑΘΟΛΙΚΗ)",
      "district": "ΕΠΑΡΧΙΑ ΛΕΜΕΣΟΥ",
      "subDistrict": "ΑΝΑΤΟΛΙΚΗΣ ΛΕΜΕΣΟΥ",
      "image": "Α-3021-0304Β-BUILDING-S.jpg"
    },
    {
      "id": "Α-3021-0054",
      "lat": 34.68145,
      "lon": 33.034803,
      "type": "ΔΗΜΟΣΙΟ",
      "capacity": "110",
      "signNumber": "0054",
      "address": "ΔΩΔΕΚΑΝΗΣΟΥ 3, Λ/ΣΟΣ (ΚΑΘΟΛΙΚΗ)",
      "district": "ΕΠΑΡΧΙΑ ΛΕΜΕΣΟΥ",
      "subDistrict": "ΑΝΑΤΟΛΙΚΗΣ ΛΕΜΕΣΟΥ",
      "image": "Α-3021-0054-BUILDING-S.jpg"
    },
    {
      "id": "Α-3021-0042Α",
      "lat": 34.68617,
      "lon": 33.03717,
      "type": "ΔΗΜΟΣΙΟ",
      "capacity": "110",
      "signNumber": "0042",
      "address": "ΛΕΩΦ. ΑΡΧ. ΜΑΚΑΡΙΟΥ Γ 146,ΑΛΦΑ ΤΑΟΥΕΡ ΑΛΦΑ ΤΑΟΥΕΡ,Λ/ΣΟΣ (ΚΑΘΟΛΙΚΗ)",
      "district": "ΕΠΑΡΧΙΑ ΛΕΜΕΣΟΥ",
      "subDistrict": "ΑΝΑΤΟΛΙΚΗΣ ΛΕΜΕΣΟΥ",
      "image": "Α-3021-0042Α-BUILDING-S.jpg"
    },
    {
      "id": "Α-3021-0055Α",
      "lat": 34.68076,
      "lon": 33.035313,
      "type": "ΔΗΜΟΣΙΟ",
      "capacity": "110",
      "signNumber": "0055",
      "address": "ΔΩΔΕΚΑΝΗΣΟΥ 6, Λ/ΣΟΣ (ΚΑΘΟΛΙΚΗ)",
      "district": "ΕΠΑΡΧΙΑ ΛΕΜΕΣΟΥ",
      "subDistrict": "ΑΝΑΤΟΛΙΚΗΣ ΛΕΜΕΣΟΥ",
      "image": "Α-3021-0055Α-BUILDING-S.jpg"
    },
    {
      "id": "Α-3021-0065",
      "lat": 34.685544,
      "lon": 33.036081,
      "type": "ΔΗΜΟΣΙΟ",
      "capacity": "130",
      "signNumber": "0065",
      "address": "ΕΠΙΣΚΟΠΟΥ ΛΑΥΡΕΝΤΙΟΥ 10,ΚΛΙΝΙΚΗ ΚΟΥΑΛΗ ΚΛΙΝΙΚΗ ΚΟΥΑΛΗ,Λ/ΣΟΣ (ΚΑΘΟΛΙΚΗ)",
      "district": "ΕΠΑΡΧΙΑ ΛΕΜΕΣΟΥ",
      "subDistrict": "ΑΝΑΤΟΛΙΚΗΣ ΛΕΜΕΣΟΥ",
      "image": "Α-3021-0065-BUILDING-S.jpg"
    },
    {
      "id": "Α-3021-0055Β",
      "lat": 34.68076,
      "lon": 33.035313,
      "type": "ΔΗΜΟΣΙΟ",
      "capacity": "110",
      "signNumber": "0055",
      "address": "ΔΩΔΕΚΑΝΗΣΟΥ 6, Λ/ΣΟΣ (ΚΑΘΟΛΙΚΗ)",
      "district": "ΕΠΑΡΧΙΑ ΛΕΜΕΣΟΥ",
      "subDistrict": "ΑΝΑΤΟΛΙΚΗΣ ΛΕΜΕΣΟΥ",
      "image": "Α-3021-0055Β-BUILDING-S.jpg"
    },
    {
      "id": "Α-3021-0372",
      "lat": 34.681891,
      "lon": 33.032772,
      "type": "ΔΗΜΟΣΙΟ",
      "capacity": "27",
      "signNumber": "0372",
      "address": "ΑΡΧ. ΛΕΟΝΤΙΟΥ Α 238, Λ/ΣΟΣ (ΚΑΘΟΛΙΚΗ)",
      "district": "ΕΠΑΡΧΙΑ ΛΕΜΕΣΟΥ",
      "subDistrict": "ΑΝΑΤΟΛΙΚΗΣ ΛΕΜΕΣΟΥ",
      "image": "Α-3021-0372-BUILDING-S.jpg"
    },
    {
      "id": "Α-3021-0162Β",
      "lat": 34.683143,
      "lon": 33.030801,
      "type": "ΔΗΜΟΣΙΟ",
      "capacity": "125",
      "signNumber": "0162",
      "address": "ΑΡΧ. ΛΕΟΝΤΙΟΥ Α & ΛΕΥΚΩΣΙΑΣ,ΜΑΞΙΜΟΣ ΚΩΡΤ ΜΑΞΙΜΟΣ ΚΩΡΤ,Λ/ΣΟΣ (ΚΑΘΟΛΙΚΗ)",
      "district": "ΕΠΑΡΧΙΑ ΛΕΜΕΣΟΥ",
      "subDistrict": "ΑΝΑΤΟΛΙΚΗΣ ΛΕΜΕΣΟΥ",
      "image": "Α-3021-0162Β-BUILDING-S.jpg"
    },
    {
      "id": "Α-3021-0162Α",
      "lat": 34.683143,
      "lon": 33.030801,
      "type": "ΔΗΜΟΣΙΟ",
      "capacity": "125",
      "signNumber": "0162",
      "address": "ΑΡΧ. ΛΕΟΝΤΙΟΥ Α & ΛΕΥΚΩΣΙΑΣ,ΜΑΞΙΜΟΣ ΚΩΡΤ ΜΑΞΙΜΟΣ ΚΩΡΤ,Λ/ΣΟΣ (ΚΑΘΟΛΙΚΗ)",
      "district": "ΕΠΑΡΧΙΑ ΛΕΜΕΣΟΥ",
      "subDistrict": "ΑΝΑΤΟΛΙΚΗΣ ΛΕΜΕΣΟΥ",
      "image": "Α-3021-0162Α-BUILDING-S.jpg"
    },
    {
      "id": "Α-3021-0163Α",
      "lat": 34.683043,
      "lon": 33.031,
      "type": "ΔΗΜΟΣΙΟ",
      "capacity": "125",
      "signNumber": "0163",
      "address": "ΑΡΧ. ΛΕΟΝΤΙΟΥ Α & ΛΕΥΚΩΣΙΑΣ,ΜΑΞΙΜΟΣ ΚΩΡΤ ΜΑΞΙΜΟΣ ΚΩΡΤ,Λ/ΣΟΣ (ΚΑΘΟΛΙΚΗ)",
      "district": "ΕΠΑΡΧΙΑ ΛΕΜΕΣΟΥ",
      "subDistrict": "ΑΝΑΤΟΛΙΚΗΣ ΛΕΜΕΣΟΥ",
      "image": "Α-3021-0163Α-BUILDING-S.jpg"
    },
    {
      "id": "Α-3021-0163Β",
      "lat": 34.683043,
      "lon": 33.031,
      "type": "ΔΗΜΟΣΙΟ",
      "capacity": "125",
      "signNumber": "0163",
      "address": "ΑΡΧ. ΛΕΟΝΤΙΟΥ Α & ΛΕΥΚΩΣΙΑΣ,ΜΑΞΙΜΟΣ ΚΩΡΤ ΜΑΞΙΜΟΣ ΚΩΡΤ,Λ/ΣΟΣ (ΚΑΘΟΛΙΚΗ)",
      "district": "ΕΠΑΡΧΙΑ ΛΕΜΕΣΟΥ",
      "subDistrict": "ΑΝΑΤΟΛΙΚΗΣ ΛΕΜΕΣΟΥ",
      "image": "Α-3021-0163Β-BUILDING-S.jpg"
    },
    {
      "id": "Α-3021-0168",
      "lat": 34.685465,
      "lon": 33.033738,
      "type": "ΔΗΜΟΣΙΟ",
      "capacity": "40",
      "signNumber": "0168",
      "address": "ΙΩΑΝΝΗ ΠΟΛΕΜΗ 7, Λ/ΣΟΣ (ΚΑΘΟΛΙΚΗ)",
      "district": "ΕΠΑΡΧΙΑ ΛΕΜΕΣΟΥ",
      "subDistrict": "ΑΝΑΤΟΛΙΚΗΣ ΛΕΜΕΣΟΥ",
      "image": "Α-3021-0168-BUILDING-S.jpg"
    },
    {
      "id": "Α-3021-0174",
      "lat": 34.686245,
      "lon": 33.033355,
      "type": "ΔΗΜΟΣΙΟ",
      "capacity": "106",
      "signNumber": "0174",
      "address": "ΙΩΑΝΝΗ ΠΟΛΕΜΗ & ΛΕΩΦ. ΑΡΧ. ΜΑΚΑΡΙΟΥ Γ 131 HELLENIC BANK,Λ/ΣΟΣ( ΑΠ. ΠΕΤΡΟΥ&ΠΑΥΛΟΥ)",
      "district": "ΕΠΑΡΧΙΑ ΛΕΜΕΣΟΥ",
      "subDistrict": "ΑΝΑΤΟΛΙΚΗΣ ΛΕΜΕΣΟΥ",
      "image": "Α-3021-0174-BUILDING-S.jpg"
    },
    {
      "id": "Α-3021-0353Α",
      "lat": 34.683996,
      "lon": 33.031406,
      "type": "ΔΗΜΟΣΙΟ",
      "capacity": "125",
      "signNumber": "0353",
      "address": "ΛΕΩΦ. ΑΡΧ. ΜΑΚΑΡΙΟΥ Γ 110 & ΛΑΡΝΑΚΟΣ, Λ/ΣΟΣ (ΚΑΘΟΛΙΚΗ)",
      "district": "ΕΠΑΡΧΙΑ ΛΕΜΕΣΟΥ",
      "subDistrict": "ΑΝΑΤΟΛΙΚΗΣ ΛΕΜΕΣΟΥ",
      "image": "Α-3021-0353Α-BUILDING-S.jpg"
    },
    {
      "id": "Α-3021-0353Β",
      "lat": 34.683996,
      "lon": 33.031406,
      "type": "ΔΗΜΟΣΙΟ",
      "capacity": "125",
      "signNumber": "0353",
      "address": "ΛΕΩΦ. ΑΡΧ. ΜΑΚΑΡΙΟΥ Γ 110 & ΛΑΡΝΑΚΟΣ, Λ/ΣΟΣ (ΚΑΘΟΛΙΚΗ)",
      "district": "ΕΠΑΡΧΙΑ ΛΕΜΕΣΟΥ",
      "subDistrict": "ΑΝΑΤΟΛΙΚΗΣ ΛΕΜΕΣΟΥ",
      "image": "Α-3021-0353Β-BUILDING-S.jpg"
    },
    {
      "id": "Α-3021-0355Α",
      "lat": 34.682091,
      "lon": 33.032449,
      "type": "ΔΗΜΟΣΙΟ",
      "capacity": "35",
      "signNumber": "0355",
      "address": "ΑΡΧ. ΛΕΟΝΤΙΟΥ Α 242,LE VILLAGE LE VILLAGE,Λ/ΣΟΣ (ΚΑΘΟΛΙΚΗ)",
      "district": "ΕΠΑΡΧΙΑ ΛΕΜΕΣΟΥ",
      "subDistrict": "ΑΝΑΤΟΛΙΚΗΣ ΛΕΜΕΣΟΥ",
      "image": "Α-3021-0355Α-BUILDING-S.jpg"
    },
    {
      "id": "Α-3021-0355Β",
      "lat": 34.682091,
      "lon": 33.032449,
      "type": "ΔΗΜΟΣΙΟ",
      "capacity": "30",
      "signNumber": "0355",
      "address": "ΑΡΧ. ΛΕΟΝΤΙΟΥ Α 242,LE VILLAGE LE VILLAGE,Λ/ΣΟΣ (ΚΑΘΟΛΙΚΗ)",
      "district": "ΕΠΑΡΧΙΑ ΛΕΜΕΣΟΥ",
      "subDistrict": "ΑΝΑΤΟΛΙΚΗΣ ΛΕΜΕΣΟΥ",
      "image": "Α-3021-0355Β-BUILDING-S.jpg"
    },
    {
      "id": "Α-3021-0357",
      "lat": 34.684655,
      "lon": 33.03374,
      "type": "ΔΗΜΟΣΙΟ",
      "capacity": "130",
      "signNumber": "0357",
      "address": "ΠΕΤΡΟΥ ΤΣΙΡΟΥ 2, Λ/ΣΟΣ (ΚΑΘΟΛΙΚΗ)",
      "district": "ΕΠΑΡΧΙΑ ΛΕΜΕΣΟΥ",
      "subDistrict": "ΑΝΑΤΟΛΙΚΗΣ ΛΕΜΕΣΟΥ",
      "image": "Α-3021-0357-BUILDING-S.jpg"
    },
    {
      "id": "Α-3021-0277",
      "lat": 34.683326,
      "lon": 33.030574,
      "type": "ΔΗΜΟΣΙΟ",
      "capacity": "130",
      "signNumber": "0277",
      "address": "ΛΕΩΦ. ΑΡΧ. ΜΑΚΑΡΙΟΥ Γ & ΑΡΧ. ΛΕΟΝΤΙΟΥ Α,ΜΑΞΙΜΟΣ ΜΑΞΙΜΟΣ ΜΠΙΛΤΙΝΓΚ,Λ/ΣΟΣ (ΚΑΘΟΛΙΚΗ)",
      "district": "ΕΠΑΡΧΙΑ ΛΕΜΕΣΟΥ",
      "subDistrict": "ΑΝΑΤΟΛΙΚΗΣ ΛΕΜΕΣΟΥ",
      "image": "Α-3021-0277-BUILDING-S.jpg"
    },
    {
      "id": "Α-3021-0042Β",
      "lat": 34.68617,
      "lon": 33.03713,
      "type": "ΔΗΜΟΣΙΟ",
      "capacity": "110",
      "signNumber": "0042",
      "address": "ΛΕΩΦ. ΑΡΧ. ΜΑΚΑΡΙΟΥ Γ 146,ΑΛΦΑ ΤΑΟΥΕΡ ΑΛΦΑ ΤΑΟΥΕΡ,Λ/ΣΟΣ (ΚΑΘΟΛΙΚΗ)",
      "district": "ΕΠΑΡΧΙΑ ΛΕΜΕΣΟΥ",
      "subDistrict": "ΑΝΑΤΟΛΙΚΗΣ ΛΕΜΕΣΟΥ",
      "image": "Α-3021-0042Β-BUILDING-S.jpg"
    },
    {
      "id": "Α-3022-0132",
      "lat": 34.677314,
      "lon": 33.038498,
      "type": "ΔΗΜΟΣΙΟ",
      "capacity": "170",
      "signNumber": "0132",
      "address": "ΕΙΡΗΝΗΣ 172 & 174, Λ/ΣΟΣ (ΚΑΘΟΛΙΚΗ)",
      "district": "ΕΠΑΡΧΙΑ ΛΕΜΕΣΟΥ",
      "subDistrict": "ΑΝΑΤΟΛΙΚΗΣ ΛΕΜΕΣΟΥ",
      "image": "Α-3022-0132-BUILDING-S.jpg"
    },
    {
      "id": "Α-3022-0170",
      "lat": 34.680284,
      "lon": 33.034768,
      "type": "ΔΗΜΟΣΙΟ",
      "capacity": "130",
      "signNumber": "0170",
      "address": "ΑΡΧ. ΛΕΟΝΤΙΟΥ Α 163,ΚΛΕΡΙΜΟΣ ΚΛΕΡΙΜΟΣ,Λ/ΣΟΣ (ΚΑΘΟΛΙΚΗ)",
      "district": "ΕΠΑΡΧΙΑ ΛΕΜΕΣΟΥ",
      "subDistrict": "ΑΝΑΤΟΛΙΚΗΣ ΛΕΜΕΣΟΥ",
      "image": "Α-3022-0170-BUILDING-S.jpg"
    },
    {
      "id": "Α-3022-0356",
      "lat": 34.679615,
      "lon": 33.035182,
      "type": "ΔΗΜΟΣΙΟ",
      "capacity": "125",
      "signNumber": "0356",
      "address": "ΧΡΥΣΑΝΘΟΥ ΕΠΙΣΚΟΠΟΥ ΠΑΦΟΥ, Λ/ΣΟΣ (ΚΑΘΟΛΙΚΗ)",
      "district": "ΕΠΑΡΧΙΑ ΛΕΜΕΣΟΥ",
      "subDistrict": "ΑΝΑΤΟΛΙΚΗΣ ΛΕΜΕΣΟΥ",
      "image": "Α-3022-0356-BUILDING-S.jpg"
    },
    {
      "id": "Α-3022-0269",
      "lat": 34.680636,
      "lon": 33.036426,
      "type": "ΔΗΜΟΣΙΟ",
      "capacity": "130",
      "signNumber": "0269",
      "address": "ΙΩΑΝΝΗ ΚΟΜΝΗΝΟΥ 3, Λ/ΣΟΣ (ΚΑΘΟΛΙΚΗ)",
      "district": "ΕΠΑΡΧΙΑ ΛΕΜΕΣΟΥ",
      "subDistrict": "ΑΝΑΤΟΛΙΚΗΣ ΛΕΜΕΣΟΥ",
      "image": "Α-3022-0269-BUILDING-S.jpg"
    },
    {
      "id": "Α-3022-0285",
      "lat": 34.676498,
      "lon": 33.037936,
      "type": "ΔΗΜΟΣΙΟ",
      "capacity": "130",
      "signNumber": "0285",
      "address": "ΔΗΜΟΣΘΕΝΗ ΜΙΤΣΗ 11,ΕΦΜΑ ΚΩΡΤ ΕΦΜΑ ΚΩΡΤ,Λ/ΣΟΣ (ΚΑΘΟΛΙΚΗ)",
      "district": "ΕΠΑΡΧΙΑ ΛΕΜΕΣΟΥ",
      "subDistrict": "ΑΝΑΤΟΛΙΚΗΣ ΛΕΜΕΣΟΥ",
      "image": "Α-3022-0285-BUILDING-S.jpg"
    },
    {
      "id": "Α-3025-0051",
      "lat": 34.684738,
      "lon": 33.041434,
      "type": "ΔΗΜΟΣΙΟ",
      "capacity": "130",
      "signNumber": "0051",
      "address": "ΘΕΣΣΑΛΟΝΙΚΗΣ 43 ΘΕΣΣΑΛΟΝΙΚΗ ΚΩΡΤ,Λ/ΣΟΣ  (ΑΓ. ΖΩΝΗ)",
      "district": "ΕΠΑΡΧΙΑ ΛΕΜΕΣΟΥ",
      "subDistrict": "ΑΝΑΤΟΛΙΚΗΣ ΛΕΜΕΣΟΥ",
      "image": "Α-3025-0051-BUILDING-S.jpg"
    },
    {
      "id": "Α-3025-0053",
      "lat": 34.680947,
      "lon": 33.0397,
      "type": "ΔΗΜΟΣΙΟ",
      "capacity": "120",
      "signNumber": "0053",
      "address": "ΑΓ. ΦΥΛΑΞΕΩΣ 42 & ΑΘΗΝΑΙΔΟΣ ΛΑΝΙΤΟΥ ΣΥΝΕΡΓΑΤΙΚΟ ΤΑΜΙΕΥΤΗΡΙΟ ΛΕΜΕΣΟΥ,Λ/ΣΟΣ  (ΑΓ. ΖΩΝΗ)",
      "district": "ΕΠΑΡΧΙΑ ΛΕΜΕΣΟΥ",
      "subDistrict": "ΑΝΑΤΟΛΙΚΗΣ ΛΕΜΕΣΟΥ",
      "image": "Α-3025-0053-BUILDING-S.jpg"
    },
    {
      "id": "Α-3025-0134",
      "lat": 34.682343,
      "lon": 33.041445,
      "type": "ΔΗΜΟΣΙΟ",
      "capacity": "100",
      "signNumber": "0134",
      "address": "ΘΕΣΣΑΛΟΝΙΚΗΣ 22,ΟΜΗΡΟΣ ΚΩΡΤ ΟΜΗΡΟΣ ΚΩΡΤ,Λ/ΣΟΣ  (ΑΓ. ΖΩΝΗ)",
      "district": "ΕΠΑΡΧΙΑ ΛΕΜΕΣΟΥ",
      "subDistrict": "ΑΝΑΤΟΛΙΚΗΣ ΛΕΜΕΣΟΥ",
      "image": "Α-3025-0134-BUILDING-S.jpg"
    },
    {
      "id": "Α-3025-0251",
      "lat": 34.68451,
      "lon": 33.039208,
      "type": "ΔΗΜΟΣΙΟ",
      "capacity": "75",
      "signNumber": "0251",
      "address": "ΘΕΣΣΑΛΟΝΙΚΗΣ 61, Λ/ΣΟΣ  (ΑΓ. ΖΩΝΗ)",
      "district": "ΕΠΑΡΧΙΑ ΛΕΜΕΣΟΥ",
      "subDistrict": "ΑΝΑΤΟΛΙΚΗΣ ΛΕΜΕΣΟΥ",
      "image": "Α-3025-0251-BUILDING-S.jpg"
    },
    {
      "id": "Α-3025-0262",
      "lat": 34.68574,
      "lon": 33.037319,
      "type": "ΔΗΜΟΣΙΟ",
      "capacity": "20",
      "signNumber": "0262",
      "address": "ΑΓ. ΦΥΛΑΞΕΩΣ 61, Λ/ΣΟΣ (ΚΑΘΟΛΙΚΗ)",
      "district": "ΕΠΑΡΧΙΑ ΛΕΜΕΣΟΥ",
      "subDistrict": "ΑΝΑΤΟΛΙΚΗΣ ΛΕΜΕΣΟΥ",
      "image": "Α-3025-0262-BUILDING-S.jpg"
    },
    {
      "id": "Α-3025-0263",
      "lat": 34.680342,
      "lon": 33.039616,
      "type": "ΔΗΜΟΣΙΟ",
      "capacity": "50",
      "signNumber": "0263",
      "address": "ΑΓ. ΦΥΛΑΞΕΩΣ 15 & ΟΡΦΕΩΣ SUPERMARKET KYRIAKOU & SON,Λ/ΣΟΣ (ΚΑΘΟΛΙΚΗ)",
      "district": "ΕΠΑΡΧΙΑ ΛΕΜΕΣΟΥ",
      "subDistrict": "ΑΝΑΤΟΛΙΚΗΣ ΛΕΜΕΣΟΥ",
      "image": "Α-3025-0263-BUILDING-S.jpg"
    },
    {
      "id": "Α-3025-0374",
      "lat": 34.682043,
      "lon": 33.040648,
      "type": "ΔΗΜΟΣΙΟ",
      "capacity": "150",
      "signNumber": "0374",
      "address": "ΝΑΥΠΛΙΟΥ 28 & ΘΗΣΕΩΣ, Λ/ΣΟΣ  (ΑΓ. ΖΩΝΗ)",
      "district": "ΕΠΑΡΧΙΑ ΛΕΜΕΣΟΥ",
      "subDistrict": "ΑΝΑΤΟΛΙΚΗΣ ΛΕΜΕΣΟΥ",
      "image": "Α-3025-0374-BUILDING-S.jpg"
    },
    {
      "id": "Α-3025-0352Α",
      "lat": 34.681048,
      "lon": 33.041133,
      "type": "ΔΗΜΟΣΙΟ",
      "capacity": "65",
      "signNumber": "0352",
      "address": "ΝΑΥΠΛΙΟΥ 15,PALEMA BUSINESS CENTER PALEMA BUSINESS CENTER,Λ/ΣΟΣ  (ΑΓ. ΖΩΝΗ)",
      "district": "ΕΠΑΡΧΙΑ ΛΕΜΕΣΟΥ",
      "subDistrict": "ΑΝΑΤΟΛΙΚΗΣ ΛΕΜΕΣΟΥ",
      "image": "Α-3025-0352Α-BUILDING-S.jpg"
    },
    {
      "id": "Α-3025-0352Β",
      "lat": 34.681048,
      "lon": 33.041133,
      "type": "ΔΗΜΟΣΙΟ",
      "capacity": "65",
      "signNumber": "0352",
      "address": "ΝΑΥΠΛΙΟΥ 15,PALEMA BUSINESS CENTER PALEMA BUSINESS CENTER,Λ/ΣΟΣ  (ΑΓ. ΖΩΝΗ)",
      "district": "ΕΠΑΡΧΙΑ ΛΕΜΕΣΟΥ",
      "subDistrict": "ΑΝΑΤΟΛΙΚΗΣ ΛΕΜΕΣΟΥ",
      "image": "Α-3025-0352Β-BUILDING-S.jpg"
    },
    {
      "id": "Α-3025-0266",
      "lat": 34.68398,
      "lon": 33.037521,
      "type": "ΔΗΜΟΣΙΟ",
      "capacity": "45",
      "signNumber": "0266",
      "address": "ΑΓ. ΦΥΛΑΞΕΩΣ 47, Λ/ΣΟΣ (ΚΑΘΟΛΙΚΗ)",
      "district": "ΕΠΑΡΧΙΑ ΛΕΜΕΣΟΥ",
      "subDistrict": "ΑΝΑΤΟΛΙΚΗΣ ΛΕΜΕΣΟΥ",
      "image": "Α-3025-0266-BUILDING-S.jpg"
    },
    {
      "id": "Α-3025-0270",
      "lat": 34.679981,
      "lon": 33.039919,
      "type": "ΔΗΜΟΣΙΟ",
      "capacity": "60",
      "signNumber": "0270",
      "address": "ΑΓ. ΦΥΛΑΞΕΩΣ 9 ΕΥΤΥΧΙΑ ΚΩΡΤ,Λ/ΣΟΣ (ΚΑΘΟΛΙΚΗ)",
      "district": "ΕΠΑΡΧΙΑ ΛΕΜΕΣΟΥ",
      "subDistrict": "ΑΝΑΤΟΛΙΚΗΣ ΛΕΜΕΣΟΥ",
      "image": "Α-3025-0270-BUILDING-S.jpg"
    },
    {
      "id": "Α-3025-0292",
      "lat": 34.680497,
      "lon": 33.039837,
      "type": "ΔΗΜΟΣΙΟ",
      "capacity": "100",
      "signNumber": "0292",
      "address": "ΑΓ. ΦΥΛΑΞΕΩΣ 38,ΝΙΚΟΛΑΣ ΚΩΡΤ ΝΙΚΟΛΑΣ ΚΩΡΤ,Λ/ΣΟΣ  (ΑΓ. ΖΩΝΗ)",
      "district": "ΕΠΑΡΧΙΑ ΛΕΜΕΣΟΥ",
      "subDistrict": "ΑΝΑΤΟΛΙΚΗΣ ΛΕΜΕΣΟΥ",
      "image": "Α-3025-0292-BUILDING-S.jpg"
    },
    {
      "id": "Α-3026-0044",
      "lat": 34.68293,
      "lon": 33.040455,
      "type": "ΔΗΜΟΣΙΟ",
      "capacity": "100",
      "signNumber": "0044",
      "address": "ΕΘΝΙΚΗΣ ΑΝΤΙΣΤΑΣΕΩΣ 37 & ΘΕΣΣΑΛΟΝΙΚΗΣ, Λ/ΣΟΣ  (ΑΓ. ΖΩΝΗ)",
      "district": "ΕΠΑΡΧΙΑ ΛΕΜΕΣΟΥ",
      "subDistrict": "ΑΝΑΤΟΛΙΚΗΣ ΛΕΜΕΣΟΥ",
      "image": "Α-3026-0044-BUILDING-S.jpg"
    },
    {
      "id": "Α-3026-0158Α",
      "lat": 34.681045,
      "lon": 33.042786,
      "type": "ΔΗΜΟΣΙΟ",
      "capacity": "125",
      "signNumber": "0158",
      "address": "ΘΕΣΣΑΛΟΝΙΚΗΣ & ΑΓ. ΖΩΝΗΣ,ΝΙΚΟΛΑΟΥ ΣΕΝΤΕΡ ΝΙΚΟΛΑΟΥ ΣΕΝΤΕΡ,Λ/ΣΟΣ  (ΑΓ. ΖΩΝΗ)",
      "district": "ΕΠΑΡΧΙΑ ΛΕΜΕΣΟΥ",
      "subDistrict": "ΑΝΑΤΟΛΙΚΗΣ ΛΕΜΕΣΟΥ",
      "image": "Α-3026-0158Α-BUILDING-S.jpg"
    },
    {
      "id": "Α-3026-0159Α",
      "lat": 34.681045,
      "lon": 33.043115,
      "type": "ΔΗΜΟΣΙΟ",
      "capacity": "125",
      "signNumber": "0159",
      "address": "ΘΕΣΣΑΛΟΝΙΚΗΣ & ΑΓ. ΖΩΝΗΣ,ΝΙΚΟΛΑΟΥ ΣΕΝΤΕΡ ΝΙΚΟΛΑΟΥ ΣΕΝΤΕΡ,Λ/ΣΟΣ  (ΑΓ. ΖΩΝΗ)",
      "district": "ΕΠΑΡΧΙΑ ΛΕΜΕΣΟΥ",
      "subDistrict": "ΑΝΑΤΟΛΙΚΗΣ ΛΕΜΕΣΟΥ",
      "image": "Α-3026-0159Α-BUILDING-S.jpg"
    },
    {
      "id": "Α-3026-0257",
      "lat": 34.685406,
      "lon": 33.040403,
      "type": "ΔΗΜΟΣΙΟ",
      "capacity": "100",
      "signNumber": "0257",
      "address": "ΝΙΚΟΥ ΚΑΡΒΟΥΝΗ & ΑΡΓΥΡΟΚΑΣΤΡΟΥ, Λ/ΣΟΣ  (ΑΓ. ΖΩΝΗ)",
      "district": "ΕΠΑΡΧΙΑ ΛΕΜΕΣΟΥ",
      "subDistrict": "ΑΝΑΤΟΛΙΚΗΣ ΛΕΜΕΣΟΥ",
      "image": "Α-3026-0257-BUILDING-S.jpg"
    },
    {
      "id": "Α-3026-0259",
      "lat": 34.68229,
      "lon": 33.043044,
      "type": "ΔΗΜΟΣΙΟ",
      "capacity": "60",
      "signNumber": "0259",
      "address": "ΒΑΣΙΛΗ ΜΙΧΑΗΛΙΔΗ 8, Λ/ΣΟΣ  (ΑΓ. ΖΩΝΗ)",
      "district": "ΕΠΑΡΧΙΑ ΛΕΜΕΣΟΥ",
      "subDistrict": "ΑΝΑΤΟΛΙΚΗΣ ΛΕΜΕΣΟΥ",
      "image": "Α-3026-0259-BUILDING-S.jpg"
    },
    {
      "id": "Α-3026-0261",
      "lat": 34.686347,
      "lon": 33.039961,
      "type": "ΔΗΜΟΣΙΟ",
      "capacity": "90",
      "signNumber": "0261",
      "address": "ΙΩΑΝΝΗ ΚΟΝΔΥΛΑΚΗ 15,ΝΕΟΚΛΗΣ ΚΩΡΤ ΝΕΟΚΛΗΣ ΚΩΡΤ,Λ/ΣΟΣ  (ΑΓ. ΖΩΝΗ)",
      "district": "ΕΠΑΡΧΙΑ ΛΕΜΕΣΟΥ",
      "subDistrict": "ΑΝΑΤΟΛΙΚΗΣ ΛΕΜΕΣΟΥ",
      "image": "Α-3026-0261-BUILDING-S.jpg"
    },
    {
      "id": "Α-3026-0274",
      "lat": 34.682044,
      "lon": 33.042932,
      "type": "ΔΗΜΟΣΙΟ",
      "capacity": "120",
      "signNumber": "0274",
      "address": "ΒΑΣΙΛΗ ΜΙΧΑΗΛΙΔΗ 7, Λ/ΣΟΣ  (ΑΓ. ΖΩΝΗ)",
      "district": "ΕΠΑΡΧΙΑ ΛΕΜΕΣΟΥ",
      "subDistrict": "ΑΝΑΤΟΛΙΚΗΣ ΛΕΜΕΣΟΥ",
      "image": "Α-3026-0274-BUILDING-S.jpg"
    },
    {
      "id": "Α-3026-0275",
      "lat": 34.682044,
      "lon": 33.042932,
      "type": "ΔΗΜΟΣΙΟ",
      "capacity": "100",
      "signNumber": "0275",
      "address": "ΒΑΣΙΛΗ ΜΙΧΑΗΛΙΔΗ 7, Λ/ΣΟΣ  (ΑΓ. ΖΩΝΗ)",
      "district": "ΕΠΑΡΧΙΑ ΛΕΜΕΣΟΥ",
      "subDistrict": "ΑΝΑΤΟΛΙΚΗΣ ΛΕΜΕΣΟΥ",
      "image": "Α-3026-0275-BUILDING-S.jpg"
    },
    {
      "id": "Α-3026-0218",
      "lat": 34.68724,
      "lon": 33.03971,
      "type": "ΔΗΜΟΣΙΟ",
      "capacity": "100",
      "signNumber": "0218",
      "address": "ΛΕΩΦ. ΑΡΧ. ΜΑΚΑΡΙΟΥ Γ 153 ¨Y¨ COURT,Λ/ΣΟΣ (ΚΑΨΑΛΟΣ)",
      "district": "ΕΠΑΡΧΙΑ ΛΕΜΕΣΟΥ",
      "subDistrict": "ΑΝΑΤΟΛΙΚΗΣ ΛΕΜΕΣΟΥ",
      "image": "Α-3026-0218-BUILDING-S.jpg"
    },
    {
      "id": "Α-3026-0158Β",
      "lat": 34.681045,
      "lon": 33.042786,
      "type": "ΔΗΜΟΣΙΟ",
      "capacity": "125",
      "signNumber": "0158",
      "address": "ΘΕΣΣΑΛΟΝΙΚΗΣ & ΑΓ. ΖΩΝΗΣ,ΝΙΚΟΛΑΟΥ ΣΕΝΤΕΡ ΝΙΚΟΛΑΟΥ ΣΕΝΤΕΡ,Λ/ΣΟΣ  (ΑΓ. ΖΩΝΗ)",
      "district": "ΕΠΑΡΧΙΑ ΛΕΜΕΣΟΥ",
      "subDistrict": "ΑΝΑΤΟΛΙΚΗΣ ΛΕΜΕΣΟΥ",
      "image": "Α-3026-0158Β-BUILDING-S.jpg"
    },
    {
      "id": "Α-3026-0159Β",
      "lat": 34.681045,
      "lon": 33.043115,
      "type": "ΔΗΜΟΣΙΟ",
      "capacity": "125",
      "signNumber": "0159",
      "address": "ΘΕΣΣΑΛΟΝΙΚΗΣ & ΑΓ. ΖΩΝΗΣ,ΝΙΚΟΛΑΟΥ ΣΕΝΤΕΡ ΝΙΚΟΛΑΟΥ ΣΕΝΤΕΡ,Λ/ΣΟΣ  (ΑΓ. ΖΩΝΗ)",
      "district": "ΕΠΑΡΧΙΑ ΛΕΜΕΣΟΥ",
      "subDistrict": "ΑΝΑΤΟΛΙΚΗΣ ΛΕΜΕΣΟΥ",
      "image": "Α-3026-0159Β-BUILDING-S.jpg"
    },
    {
      "id": "Α-3026-9706",
      "lat": 34.683396,
      "lon": 33.040183,
      "type": "ΚΟΙΝΟ",
      "capacity": "75",
      "signNumber": "9706",
      "address": "ΓΡΗΓΟΡΗ ΑΥΞΕΝΤΙΟΥ 37 & ΘΕΣΣΑΛΟΝΙΚΗΣ,ΚΥΡΙΑΚΟΣ ΚΩΡΤ ΚΥΡΙΑΚΟΣ ΚΩΡΤ,Λ/ΣΟΣ  (ΑΓ. ΖΩΝΗ)",
      "district": "ΕΠΑΡΧΙΑ ΛΕΜΕΣΟΥ",
      "subDistrict": "ΑΝΑΤΟΛΙΚΗΣ ΛΕΜΕΣΟΥ",
      "image": "Α-3026-9706-BUILDING-S.jpg"
    },
    {
      "id": "Α-3027-0041Α",
      "lat": 34.686428,
      "lon": 33.043723,
      "type": "ΔΗΜΟΣΙΟ",
      "capacity": "110",
      "signNumber": "0041",
      "address": "ΠΛΑΤΩΝΟΣ 4, Λ/ΣΟΣ  (ΑΓ. ΖΩΝΗ)",
      "district": "ΕΠΑΡΧΙΑ ΛΕΜΕΣΟΥ",
      "subDistrict": "ΑΝΑΤΟΛΙΚΗΣ ΛΕΜΕΣΟΥ",
      "image": "Α-3027-0041Α-BUILDING-S.jpg"
    },
    {
      "id": "Α-3027-0043",
      "lat": 34.685323,
      "lon": 33.044228,
      "type": "ΔΗΜΟΣΙΟ",
      "capacity": "135",
      "signNumber": "0043",
      "address": "ΑΓ. ΖΩΝΗΣ 30Α & ΚΩΣΤΑ ΠΑΡΤΑΣΙΔΗ, Λ/ΣΟΣ  (ΑΓ. ΖΩΝΗ)",
      "district": "ΕΠΑΡΧΙΑ ΛΕΜΕΣΟΥ",
      "subDistrict": "ΑΝΑΤΟΛΙΚΗΣ ΛΕΜΕΣΟΥ",
      "image": "Α-3027-0043-BUILDING-S.jpg"
    },
    {
      "id": "Α-3027-0139",
      "lat": 34.685559,
      "lon": 33.044217,
      "type": "ΔΗΜΟΣΙΟ",
      "capacity": "110",
      "signNumber": "0139",
      "address": "ΑΓ. ΖΩΝΗΣ 32 & ΚΩΣΤΑ ΠΑΡΤΑΣΙΔΗ ΟΙΚΗΜΑ ΑΚΕΛ,Λ/ΣΟΣ  (ΑΓ. ΖΩΝΗ)",
      "district": "ΕΠΑΡΧΙΑ ΛΕΜΕΣΟΥ",
      "subDistrict": "ΑΝΑΤΟΛΙΚΗΣ ΛΕΜΕΣΟΥ",
      "image": "Α-3027-0139-BUILDING-S.jpg"
    },
    {
      "id": "Α-3027-0164",
      "lat": 34.68216,
      "lon": 33.043838,
      "type": "ΔΗΜΟΣΙΟ",
      "capacity": "50",
      "signNumber": "0164",
      "address": "ΑΓ. ΖΩΝΗΣ 10,ΜΑΡΙΟΣ ΣΝΑΚΣ ΜΑΡΙΟΣ ΣΝΑΚΣ,Λ/ΣΟΣ  (ΑΓ. ΖΩΝΗ)",
      "district": "ΕΠΑΡΧΙΑ ΛΕΜΕΣΟΥ",
      "subDistrict": "ΑΝΑΤΟΛΙΚΗΣ ΛΕΜΕΣΟΥ",
      "image": "Α-3027-0164-BUILDING-S.jpg"
    },
    {
      "id": "Α-3027-0264",
      "lat": 34.683843,
      "lon": 33.043864,
      "type": "ΔΗΜΟΣΙΟ",
      "capacity": "150",
      "signNumber": "0264",
      "address": "ΑΓ. ΖΩΝΗΣ 29,ARCADE TOWER ARCADE TOWER,Λ/ΣΟΣ  (ΑΓ. ΖΩΝΗ)",
      "district": "ΕΠΑΡΧΙΑ ΛΕΜΕΣΟΥ",
      "subDistrict": "ΑΝΑΤΟΛΙΚΗΣ ΛΕΜΕΣΟΥ",
      "image": "Α-3027-0264-BUILDING-S.jpg"
    },
    {
      "id": "Α-3027-0273",
      "lat": 34.686601,
      "lon": 33.043956,
      "type": "ΔΗΜΟΣΙΟ",
      "capacity": "100",
      "signNumber": "0273",
      "address": "ΑΓ. ΖΩΝΗΣ 43, Λ/ΣΟΣ  (ΑΓ. ΖΩΝΗ)",
      "district": "ΕΠΑΡΧΙΑ ΛΕΜΕΣΟΥ",
      "subDistrict": "ΑΝΑΤΟΛΙΚΗΣ ΛΕΜΕΣΟΥ",
      "image": "Α-3027-0273-BUILDING-S.jpg"
    },
    {
      "id": "Α-3027-0412",
      "lat": 34.68807,
      "lon": 33.0443,
      "type": "ΔΗΜΟΣΙΟ",
      "capacity": "50",
      "signNumber": "0412",
      "address": "ΛΕΩΦ. ΑΡΧ. ΜΑΚΑΡΙΟΥ Γ 171,VANEZIS BUSINESS CENTER VANEZIS BUSINESS CENTER,Λ/ΣΟΣ  (ΑΓ. ΖΩΝΗ)",
      "district": "ΕΠΑΡΧΙΑ ΛΕΜΕΣΟΥ",
      "subDistrict": "ΑΝΑΤΟΛΙΚΗΣ ΛΕΜΕΣΟΥ",
      "image": "Α-3027-0412-BUILDING-S.jpg"
    },
    {
      "id": "Α-3027-0413",
      "lat": 34.68807,
      "lon": 33.0443,
      "type": "ΔΗΜΟΣΙΟ",
      "capacity": "100",
      "signNumber": "0413",
      "address": "ΛΕΩΦ. ΑΡΧ. ΜΑΚΑΡΙΟΥ Γ 171,VANEZIS BUSINESS CENTER VANEZIS BUSINESS CENTER,Λ/ΣΟΣ  (ΑΓ. ΖΩΝΗ)",
      "district": "ΕΠΑΡΧΙΑ ΛΕΜΕΣΟΥ",
      "subDistrict": "ΑΝΑΤΟΛΙΚΗΣ ΛΕΜΕΣΟΥ",
      "image": "Α-3027-0413-BUILDING-S.jpg"
    },
    {
      "id": "Α-3027-0041Β",
      "lat": 34.686428,
      "lon": 33.043723,
      "type": "ΔΗΜΟΣΙΟ",
      "capacity": "110",
      "signNumber": "0041",
      "address": "ΠΛΑΤΩΝΟΣ 4, Λ/ΣΟΣ  (ΑΓ. ΖΩΝΗ)",
      "district": "ΕΠΑΡΧΙΑ ΛΕΜΕΣΟΥ",
      "subDistrict": "ΑΝΑΤΟΛΙΚΗΣ ΛΕΜΕΣΟΥ",
      "image": "Α-3027-0041Β-BUILDING-S.jpg"
    },
    {
      "id": "Α-3030-0140",
      "lat": 34.687229,
      "lon": 33.041569,
      "type": "ΔΗΜΟΣΙΟ",
      "capacity": "100",
      "signNumber": "0140",
      "address": "ΛΕΩΦ. ΑΡΧ. ΜΑΚΑΡΙΟΥ Γ 176 PASCHALIS AV. HOUSE,Λ/ΣΟΣ  (ΑΓ. ΖΩΝΗ)",
      "district": "ΕΠΑΡΧΙΑ ΛΕΜΕΣΟΥ",
      "subDistrict": "ΑΝΑΤΟΛΙΚΗΣ ΛΕΜΕΣΟΥ",
      "image": "Α-3030-0140-BUILDING-S.jpg"
    },
    {
      "id": "Α-3030-0141",
      "lat": 34.686853,
      "lon": 33.048808,
      "type": "ΔΗΜΟΣΙΟ",
      "capacity": "120",
      "signNumber": "0141",
      "address": "ΜΑΝΩΛΗ ΚΑΛΟΜΟΙΡΗ 20, Λ/ΣΟΣ  (ΑΓ. ΖΩΝΗ)",
      "district": "ΕΠΑΡΧΙΑ ΛΕΜΕΣΟΥ",
      "subDistrict": "ΑΝΑΤΟΛΙΚΗΣ ΛΕΜΕΣΟΥ",
      "image": "Α-3030-0141-BUILDING-S.jpg"
    },
    {
      "id": "Α-3030-0143Α",
      "lat": 34.686664,
      "lon": 33.050898,
      "type": "ΔΗΜΟΣΙΟ",
      "capacity": "150",
      "signNumber": "0143",
      "address": "ΘΕΚΛΑΣ ΛΥΣΙΩΤΗ 4,ΧΑΡΜΟΝΥ ΧΑΟΥΣ,Λ/ΣΟΣ  (ΑΓ. ΖΩΝΗ)",
      "district": "ΕΠΑΡΧΙΑ ΛΕΜΕΣΟΥ",
      "subDistrict": "ΑΝΑΤΟΛΙΚΗΣ ΛΕΜΕΣΟΥ",
      "image": "Α-3030-0143Α-BUILDING-S.jpg"
    },
    {
      "id": "Α-3030-0143Β",
      "lat": 34.686664,
      "lon": 33.050898,
      "type": "ΔΗΜΟΣΙΟ",
      "capacity": "150",
      "signNumber": "0143",
      "address": "ΘΕΚΛΑΣ ΛΥΣΙΩΤΗ 4,ΧΑΡΜΟΝΥ ΧΑΟΥΣ,Λ/ΣΟΣ  (ΑΓ. ΖΩΝΗ)",
      "district": "ΕΠΑΡΧΙΑ ΛΕΜΕΣΟΥ",
      "subDistrict": "ΑΝΑΤΟΛΙΚΗΣ ΛΕΜΕΣΟΥ",
      "image": "Α-3030-0143Β-BUILDING-S.jpg"
    },
    {
      "id": "Α-3030-0144Α",
      "lat": 34.686526,
      "lon": 33.051787,
      "type": "ΔΗΜΟΣΙΟ",
      "capacity": "125",
      "signNumber": "0144",
      "address": "ΛΕΩΦ. ΑΡΧ. ΜΑΚΑΡΙΟΥ Γ 228,ΑΓΙΟΣ ΠΑΥΛΟΣ,Λ/ΣΟΣ  (ΑΓ. ΖΩΝΗ)",
      "district": "ΕΠΑΡΧΙΑ ΛΕΜΕΣΟΥ",
      "subDistrict": "ΑΝΑΤΟΛΙΚΗΣ ΛΕΜΕΣΟΥ",
      "image": "Α-3030-0144Α-BUILDING-S.jpg"
    },
    {
      "id": "Α-3030-0144Β",
      "lat": 34.686526,
      "lon": 33.051787,
      "type": "ΔΗΜΟΣΙΟ",
      "capacity": "125",
      "signNumber": "0144",
      "address": "ΛΕΩΦ. ΑΡΧ. ΜΑΚΑΡΙΟΥ Γ 228,ΑΓΙΟΣ ΠΑΥΛΟΣ,Λ/ΣΟΣ  (ΑΓ. ΖΩΝΗ)",
      "district": "ΕΠΑΡΧΙΑ ΛΕΜΕΣΟΥ",
      "subDistrict": "ΑΝΑΤΟΛΙΚΗΣ ΛΕΜΕΣΟΥ",
      "image": "Α-3030-0144Β-BUILDING-S.jpg"
    },
    {
      "id": "Α-3030-0145Α",
      "lat": 34.686352,
      "lon": 33.052583,
      "type": "ΔΗΜΟΣΙΟ",
      "capacity": "115",
      "signNumber": "0145",
      "address": "ΧΡΥΣΑΝΘΟΥ ΜΥΛΩΝΑ 5,ΛΟΡΔΟΣ ΑΠΟΛΛΩΝ ΚΩΡΤ,Λ/ΣΟΣ  (ΑΓ. ΖΩΝΗ)",
      "district": "ΕΠΑΡΧΙΑ ΛΕΜΕΣΟΥ",
      "subDistrict": "ΑΝΑΤΟΛΙΚΗΣ ΛΕΜΕΣΟΥ",
      "image": "Α-3030-0145Α-BUILDING-S.jpg"
    },
    {
      "id": "Α-3030-0145Β",
      "lat": 34.686352,
      "lon": 33.052583,
      "type": "ΔΗΜΟΣΙΟ",
      "capacity": "115",
      "signNumber": "0145",
      "address": "ΧΡΥΣΑΝΘΟΥ ΜΥΛΩΝΑ 5,ΛΟΡΔΟΣ ΑΠΟΛΛΩΝ ΚΩΡΤ ΛΟΡΔΟΣ ΑΠΟΛΛΩΝ ΚΩΡΤ,Λ/ΣΟΣ  (ΑΓ. ΖΩΝΗ)",
      "district": "ΕΠΑΡΧΙΑ ΛΕΜΕΣΟΥ",
      "subDistrict": "ΑΝΑΤΟΛΙΚΗΣ ΛΕΜΕΣΟΥ",
      "image": "Α-3030-0145Β-BUILDING-S.jpg"
    },
    {
      "id": "Α-3030-0146Α",
      "lat": 34.686348,
      "lon": 33.052672,
      "type": "ΔΗΜΟΣΙΟ",
      "capacity": "115",
      "signNumber": "0146",
      "address": "ΧΡΥΣΑΝΘΟΥ ΜΥΛΩΝΑ 5,ΛΟΡΔΟΣ ΑΠΟΛΛΩΝ ΚΩΡΤ ΛΟΡΔΟΣ ΑΠΟΛΛΩΝ ΚΩΡΤ,Λ/ΣΟΣ  (ΑΓ. ΖΩΝΗ)",
      "district": "ΕΠΑΡΧΙΑ ΛΕΜΕΣΟΥ",
      "subDistrict": "ΑΝΑΤΟΛΙΚΗΣ ΛΕΜΕΣΟΥ",
      "image": "Α-3030-0146Α-BUILDING-S.jpg"
    },
    {
      "id": "Α-3030-0146Β",
      "lat": 34.686348,
      "lon": 33.052672,
      "type": "ΔΗΜΟΣΙΟ",
      "capacity": "115",
      "signNumber": "0146",
      "address": "ΧΡΥΣΑΝΘΟΥ ΜΥΛΩΝΑ 5,ΛΟΡΔΟΣ ΑΠΟΛΛΩΝ ΚΩΡΤ ΛΟΡΔΟΣ ΑΠΟΛΛΩΝ ΚΩΡΤ,Λ/ΣΟΣ  (ΑΓ. ΖΩΝΗ)",
      "district": "ΕΠΑΡΧΙΑ ΛΕΜΕΣΟΥ",
      "subDistrict": "ΑΝΑΤΟΛΙΚΗΣ ΛΕΜΕΣΟΥ",
      "image": "Α-3030-0146Β-BUILDING-S.jpg"
    },
    {
      "id": "Α-3030-0147",
      "lat": 34.686306,
      "lon": 33.049548,
      "type": "ΔΗΜΟΣΙΟ",
      "capacity": "40",
      "signNumber": "0147",
      "address": "ΘΕΚΛΑΣ ΛΥΣΙΩΤΗ 33, Λ/ΣΟΣ  (ΑΓ. ΖΩΝΗ)",
      "district": "ΕΠΑΡΧΙΑ ΛΕΜΕΣΟΥ",
      "subDistrict": "ΑΝΑΤΟΛΙΚΗΣ ΛΕΜΕΣΟΥ",
      "image": "Α-3030-0147-BUILDING-S.jpg"
    },
    {
      "id": "Α-3030-0151",
      "lat": 34.686559,
      "lon": 33.050159,
      "type": "ΔΗΜΟΣΙΟ",
      "capacity": "130",
      "signNumber": "0151",
      "address": "ΘΕΚΛΑΣ ΛΥΣΙΩΤΗ 37 ΤΖΕΜΙΝΙ ΧΑΟΥΣ,Λ/ΣΟΣ  (ΑΓ. ΖΩΝΗ)",
      "district": "ΕΠΑΡΧΙΑ ΛΕΜΕΣΟΥ",
      "subDistrict": "ΑΝΑΤΟΛΙΚΗΣ ΛΕΜΕΣΟΥ",
      "image": "Α-3030-0151-BUILDING-S.jpg"
    },
    {
      "id": "Α-3030-0150Α",
      "lat": 34.68708,
      "lon": 33.05023,
      "type": "ΔΗΜΟΣΙΟ",
      "capacity": "115",
      "signNumber": "0150",
      "address": "ΛΕΩΦ. ΑΡΧ. ΜΑΚΑΡΙΟΥ Γ 224, ΑΧΙΛΛΕΩΣ ΚΩΡΤ,Λ/ΣΟΣ  (ΑΓ. ΖΩΝΗ)",
      "district": "ΕΠΑΡΧΙΑ ΛΕΜΕΣΟΥ",
      "subDistrict": "ΑΝΑΤΟΛΙΚΗΣ ΛΕΜΕΣΟΥ",
      "image": "Α-3030-0150Α-BUILDING-S.jpg"
    },
    {
      "id": "Α-3030-0150Β",
      "lat": 34.68708,
      "lon": 33.05023,
      "type": "ΔΗΜΟΣΙΟ",
      "capacity": "115",
      "signNumber": "0150",
      "address": "ΛΕΩΦ. ΑΡΧ. ΜΑΚΑΡΙΟΥ Γ 224,ΑΧΙΛΛΕΩΣ ΚΩΡΤ,Λ/ΣΟΣ  (ΑΓ. ΖΩΝΗ)",
      "district": "ΕΠΑΡΧΙΑ ΛΕΜΕΣΟΥ",
      "subDistrict": "ΑΝΑΤΟΛΙΚΗΣ ΛΕΜΕΣΟΥ",
      "image": "Α-3030-0150Β-BUILDING-S.jpg"
    },
    {
      "id": "Α-3030-0265",
      "lat": 34.68733,
      "lon": 33.04444,
      "type": "ΔΗΜΟΣΙΟ",
      "capacity": "150",
      "signNumber": "0265",
      "address": "ΛΕΩΦ. ΑΡΧ. ΜΑΚΑΡΙΟΥ Γ 196, Λ/ΣΟΣ  (ΑΓ. ΖΩΝΗ)",
      "district": "ΕΠΑΡΧΙΑ ΛΕΜΕΣΟΥ",
      "subDistrict": "ΑΝΑΤΟΛΙΚΗΣ ΛΕΜΕΣΟΥ",
      "image": "Α-3030-0265-BUILDING-S.jpg"
    },
    {
      "id": "Α-3030-0268Α",
      "lat": 34.6871,
      "lon": 33.04764,
      "type": "ΔΗΜΟΣΙΟ",
      "capacity": "125",
      "signNumber": "0268",
      "address": "ΛΕΩΦ. ΑΡΧ. ΜΑΚΑΡΙΟΥ Γ 212,ΣΕΤΑ ΚΩΡΤ,Λ/ΣΟΣ  (ΑΓ. ΖΩΝΗ)",
      "district": "ΕΠΑΡΧΙΑ ΛΕΜΕΣΟΥ",
      "subDistrict": "ΑΝΑΤΟΛΙΚΗΣ ΛΕΜΕΣΟΥ",
      "image": "Α-3030-0268Α-BUILDING-S.jpg"
    },
    {
      "id": "Α-3030-0268Β",
      "lat": 34.6871,
      "lon": 33.04764,
      "type": "ΔΗΜΟΣΙΟ",
      "capacity": "125",
      "signNumber": "0268",
      "address": "ΛΕΩΦ. ΑΡΧ. ΜΑΚΑΡΙΟΥ Γ 212,ΣΕΤΑ ΚΩΡΤ,Λ/ΣΟΣ  (ΑΓ. ΖΩΝΗ)",
      "district": "ΕΠΑΡΧΙΑ ΛΕΜΕΣΟΥ",
      "subDistrict": "ΑΝΑΤΟΛΙΚΗΣ ΛΕΜΕΣΟΥ",
      "image": "Α-3030-0268Β-BUILDING-S.jpg"
    },
    {
      "id": "Α-3030-0278Α",
      "lat": 34.686469,
      "lon": 33.049415,
      "type": "ΔΗΜΟΣΙΟ",
      "capacity": "200",
      "signNumber": "0278",
      "address": "ΝΙΚΗΦΟΡΟΥ ΓΡΗΓΟΡΑ 5,ΜΑΡΚΣ & ΣΠΕΝΣΕΡ,Λ/ΣΟΣ  (ΑΓ. ΖΩΝΗ)",
      "district": "ΕΠΑΡΧΙΑ ΛΕΜΕΣΟΥ",
      "subDistrict": "ΑΝΑΤΟΛΙΚΗΣ ΛΕΜΕΣΟΥ",
      "image": "Α-3030-0278Α-BUILDING-S.jpg"
    },
    {
      "id": "Α-3030-0278Β",
      "lat": 34.686469,
      "lon": 33.049415,
      "type": "ΔΗΜΟΣΙΟ",
      "capacity": "200",
      "signNumber": "0278",
      "address": "ΝΙΚΗΦΟΡΟΥ ΓΡΗΓΟΡΑ 5,ΜΑΡΚΣ & ΣΠΕΝΣΕΡ,Λ/ΣΟΣ  (ΑΓ. ΖΩΝΗ)",
      "district": "ΕΠΑΡΧΙΑ ΛΕΜΕΣΟΥ",
      "subDistrict": "ΑΝΑΤΟΛΙΚΗΣ ΛΕΜΕΣΟΥ",
      "image": "Α-3030-0278Β-BUILDING-S.jpg"
    },
    {
      "id": "Α-3030-0278Γ",
      "lat": 34.686469,
      "lon": 33.049415,
      "type": "ΔΗΜΟΣΙΟ",
      "capacity": "200",
      "signNumber": "0278",
      "address": "ΝΙΚΗΦΟΡΟΥ ΓΡΗΓΟΡΑ 5,ΜΑΡΚΣ & ΣΠΕΝΣΕΡ,Λ/ΣΟΣ  (ΑΓ. ΖΩΝΗ)",
      "district": "ΕΠΑΡΧΙΑ ΛΕΜΕΣΟΥ",
      "subDistrict": "ΑΝΑΤΟΛΙΚΗΣ ΛΕΜΕΣΟΥ",
      "image": "Α-3030-0278Γ-BUILDING-S.jpg"
    },
    {
      "id": "Α-3030-0280",
      "lat": 34.68758,
      "lon": 33.04639,
      "type": "ΔΗΜΟΣΙΟ",
      "capacity": "100",
      "signNumber": "0280",
      "address": "ΛΕΩΦ. ΑΡΧ. ΜΑΚΑΡΙΟΥ Γ 206 CHRYSALIA BUILDING,Λ/ΣΟΣ  (ΑΓ. ΖΩΝΗ)",
      "district": "ΕΠΑΡΧΙΑ ΛΕΜΕΣΟΥ",
      "subDistrict": "ΑΝΑΤΟΛΙΚΗΣ ΛΕΜΕΣΟΥ",
      "image": "Α-3030-0280-BUILDING-S.jpg"
    },
    {
      "id": "Α-3030-0290Α",
      "lat": 34.686531,
      "lon": 33.054949,
      "type": "ΔΗΜΟΣΙΟ",
      "capacity": "200",
      "signNumber": "0290",
      "address": "ΛΕΩΦ. ΑΡΧ. ΜΑΚΑΡΙΟΥ Γ 213,ΜΑΞΙΜΟΣ ΠΛΑΖΑ,Λ/ΣΟΣ (ΝΕΑΠΟΛΗ)",
      "district": "ΕΠΑΡΧΙΑ ΛΕΜΕΣΟΥ",
      "subDistrict": "ΑΝΑΤΟΛΙΚΗΣ ΛΕΜΕΣΟΥ",
      "image": "Α-3030-0290Α-BUILDING-S.jpg"
    },
    {
      "id": "Α-3030-0290Β",
      "lat": 34.686531,
      "lon": 33.054949,
      "type": "ΔΗΜΟΣΙΟ",
      "capacity": "200",
      "signNumber": "0290",
      "address": "ΛΕΩΦ. ΑΡΧ. ΜΑΚΑΡΙΟΥ Γ 213,ΜΑΞΙΜΟΣ ΠΛΑΖΑ,Λ/ΣΟΣ (ΝΕΑΠΟΛΗ)",
      "district": "ΕΠΑΡΧΙΑ ΛΕΜΕΣΟΥ",
      "subDistrict": "ΑΝΑΤΟΛΙΚΗΣ ΛΕΜΕΣΟΥ",
      "image": "Α-3030-0290Β-BUILDING-S.jpg"
    },
    {
      "id": "Α-3030-0290Γ",
      "lat": 34.686531,
      "lon": 33.054949,
      "type": "ΔΗΜΟΣΙΟ",
      "capacity": "200",
      "signNumber": "0290",
      "address": "ΛΕΩΦ. ΑΡΧ. ΜΑΚΑΡΙΟΥ Γ 213,ΜΑΞΙΜΟΣ ΠΛΑΖΑ,Λ/ΣΟΣ (ΝΕΑΠΟΛΗ)",
      "district": "ΕΠΑΡΧΙΑ ΛΕΜΕΣΟΥ",
      "subDistrict": "ΑΝΑΤΟΛΙΚΗΣ ΛΕΜΕΣΟΥ",
      "image": "Α-3030-0290Γ-BUILDING-S.jpg"
    },
    {
      "id": "Α-3030-0290Δ",
      "lat": 34.686531,
      "lon": 33.054949,
      "type": "ΔΗΜΟΣΙΟ",
      "capacity": "200",
      "signNumber": "0290",
      "address": "ΛΕΩΦ. ΑΡΧ. ΜΑΚΑΡΙΟΥ Γ 213,ΜΑΞΙΜΟΣ ΠΛΑΖΑ,Λ/ΣΟΣ (ΝΕΑΠΟΛΗ)",
      "district": "ΕΠΑΡΧΙΑ ΛΕΜΕΣΟΥ",
      "subDistrict": "ΑΝΑΤΟΛΙΚΗΣ ΛΕΜΕΣΟΥ",
      "image": "Α-3030-0290Δ-BUILDING-S.jpg"
    },
    {
      "id": "Α-3030-0290Ε",
      "lat": 34.686531,
      "lon": 33.054949,
      "type": "ΔΗΜΟΣΙΟ",
      "capacity": "200",
      "signNumber": "0290",
      "address": "ΛΕΩΦ. ΑΡΧ. ΜΑΚΑΡΙΟΥ Γ 213,ΜΑΞΙΜΟΣ ΠΛΑΖΑ ΜΑΞΙΜΟΣ ΠΛΑΖΑ,Λ/ΣΟΣ (ΝΕΑΠΟΛΗ)",
      "district": "ΕΠΑΡΧΙΑ ΛΕΜΕΣΟΥ",
      "subDistrict": "ΑΝΑΤΟΛΙΚΗΣ ΛΕΜΕΣΟΥ",
      "image": "Α-3030-290Ε-BUILDING-S.jpg"
    },
    {
      "id": "Α-3030-0015Α",
      "lat": 34.68752,
      "lon": 33.05022,
      "type": "ΔΗΜΟΣΙΟ",
      "capacity": "150",
      "signNumber": "0015",
      "address": "ΛΕΩΦ. ΑΡΧ. ΜΑΚΑΡΙΟΥ Γ 197 GALA TOWER,Λ/ΣΟΣ (ΑΓ. ΝΕΚΤΑΡΙΟΣ)",
      "district": "ΕΠΑΡΧΙΑ ΛΕΜΕΣΟΥ",
      "subDistrict": "ΑΝΑΤΟΛΙΚΗΣ ΛΕΜΕΣΟΥ",
      "image": "Α-3030-0015Α-BUILDING-S.jpg"
    },
    {
      "id": "Α-3030-0015Β",
      "lat": 34.68752,
      "lon": 33.05022,
      "type": "ΔΗΜΟΣΙΟ",
      "capacity": "150",
      "signNumber": "0015",
      "address": "ΛΕΩΦ. ΑΡΧ. ΜΑΚΑΡΙΟΥ Γ 197 GALA TOWER,Λ/ΣΟΣ (ΑΓ. ΝΕΚΤΑΡΙΟΣ)",
      "district": "ΕΠΑΡΧΙΑ ΛΕΜΕΣΟΥ",
      "subDistrict": "ΑΝΑΤΟΛΙΚΗΣ ΛΕΜΕΣΟΥ",
      "image": "Α-3030-0015Β-BUILDING-S.jpg"
    },
    {
      "id": "Α-3030-0025",
      "lat": 34.686875,
      "lon": 33.053305,
      "type": "ΔΗΜΟΣΙΟ",
      "capacity": "200",
      "signNumber": "0025",
      "address": "ΛΕΩΦ. ΑΡΧ. ΜΑΚΑΡΙΟΥ Γ 209 & ΡΗΓΑ ΦΕΡΑΙΟΥ, Λ/ΣΟΣ (ΑΓ. ΝΕΚΤΑΡΙΟΣ)",
      "district": "ΕΠΑΡΧΙΑ ΛΕΜΕΣΟΥ",
      "subDistrict": "ΑΝΑΤΟΛΙΚΗΣ ΛΕΜΕΣΟΥ",
      "image": "Α-3030-0025-BUILDING-S.jpg"
    },
    {
      "id": "Α-3030-0460Α",
      "lat": 34.68731,
      "lon": 33.0496,
      "type": "ΔΗΜΟΣΙΟ",
      "capacity": "190",
      "signNumber": "0460",
      "address": "ΛΕΩΦ. ΑΡΧ. ΜΑΚΑΡΙΟΥ Γ 195 NEOKLEOUS HOUSE,Λ/ΣΟΣ (ΑΓ. ΙΩΑΝΝΗΣ)",
      "district": "ΕΠΑΡΧΙΑ ΛΕΜΕΣΟΥ",
      "subDistrict": "ΑΝΑΤΟΛΙΚΗΣ ΛΕΜΕΣΟΥ",
      "image": "Α-3030-0460Α-BUILDING-S.jpg"
    },
    {
      "id": "Α-3030-0464Α",
      "lat": 34.68727,
      "lon": 33.05218,
      "type": "ΔΗΜΟΣΙΟ",
      "capacity": "70",
      "signNumber": "0464",
      "address": "ΛΕΩΦ. ΑΡΧ. ΜΑΚΑΡΙΟΥ Γ 205 VICTORY HOUSE,Λ/ΣΟΣ (ΑΓ. ΝΕΚΤΑΡΙΟΣ)",
      "district": "ΕΠΑΡΧΙΑ ΛΕΜΕΣΟΥ",
      "subDistrict": "ΑΝΑΤΟΛΙΚΗΣ ΛΕΜΕΣΟΥ",
      "image": "Α-3030-0464Α-BUILDING-S.jpg"
    },
    {
      "id": "Α-3030-0464Β",
      "lat": 34.68727,
      "lon": 33.05218,
      "type": "ΔΗΜΟΣΙΟ",
      "capacity": "200",
      "signNumber": "0464",
      "address": "ΛΕΩΦ. ΑΡΧ. ΜΑΚΑΡΙΟΥ Γ 205 VICTORY HOUSE,Λ/ΣΟΣ (ΑΓ. ΝΕΚΤΑΡΙΟΣ)",
      "district": "ΕΠΑΡΧΙΑ ΛΕΜΕΣΟΥ",
      "subDistrict": "ΑΝΑΤΟΛΙΚΗΣ ΛΕΜΕΣΟΥ",
      "image": "Α-3030-0464Β-BUILDING-S.jpg"
    },
    {
      "id": "Α-3030-0463",
      "lat": 34.68727,
      "lon": 33.05218,
      "type": "ΚΟΙΝΟ",
      "capacity": "70",
      "signNumber": "0463",
      "address": "ΛΕΩΦ. ΑΡΧ. ΜΑΚΑΡΙΟΥ Γ 205 VICTORY HOUSE,Λ/ΣΟΣ (ΑΓ. ΝΕΚΤΑΡΙΟΣ)",
      "district": "ΕΠΑΡΧΙΑ ΛΕΜΕΣΟΥ",
      "subDistrict": "ΑΝΑΤΟΛΙΚΗΣ ΛΕΜΕΣΟΥ",
      "image": "Α-3030-0463-BUILDING-S.jpg"
    },
    {
      "id": "Α-3030-0143Γ",
      "lat": 34.686664,
      "lon": 33.050898,
      "type": "ΔΗΜΟΣΙΟ",
      "capacity": "150",
      "signNumber": "0143",
      "address": "ΘΕΚΛΑΣ ΛΥΣΙΩΤΗ 4,ΧΑΡΜΟΝΥ ΧΑΟΥΣ ΧΑΡΜΟΝΥ ΧΑΟΥΣ,Λ/ΣΟΣ  (ΑΓ. ΖΩΝΗ)",
      "district": "ΕΠΑΡΧΙΑ ΛΕΜΕΣΟΥ",
      "subDistrict": "ΑΝΑΤΟΛΙΚΗΣ ΛΕΜΕΣΟΥ",
      "image": "Α-3030-0143Γ-BUILDING-S.jpg"
    },
    {
      "id": "Α-3031-0157Α",
      "lat": 34.684263,
      "lon": 33.044669,
      "type": "ΔΗΜΟΣΙΟ",
      "capacity": "65",
      "signNumber": "0157",
      "address": "ΗΣΙΟΔΟΥ 5, Λ/ΣΟΣ  (ΑΓ. ΖΩΝΗ)",
      "district": "ΕΠΑΡΧΙΑ ΛΕΜΕΣΟΥ",
      "subDistrict": "ΑΝΑΤΟΛΙΚΗΣ ΛΕΜΕΣΟΥ",
      "image": "Α-3031-0157Α-BUILDING-S.jpg"
    },
    {
      "id": "Α-3031-0157Β",
      "lat": 34.684263,
      "lon": 33.044669,
      "type": "ΔΗΜΟΣΙΟ",
      "capacity": "30",
      "signNumber": "0157",
      "address": "ΗΣΙΟΔΟΥ 5, Λ/ΣΟΣ  (ΑΓ. ΖΩΝΗ)",
      "district": "ΕΠΑΡΧΙΑ ΛΕΜΕΣΟΥ",
      "subDistrict": "ΑΝΑΤΟΛΙΚΗΣ ΛΕΜΕΣΟΥ",
      "image": "Α-3031-0157Β-BUILDING-S.jpg"
    },
    {
      "id": "Α-3031-0001Α",
      "lat": 34.683505,
      "lon": 33.046379,
      "type": "ΔΗΜΟΣΙΟ",
      "capacity": "200",
      "signNumber": "0001",
      "address": "ΓΛΑΔΣΤΩΝΟΣ 97 & ΑΝΤΩΝΗ ΛΟΥΚΑΙΔΗ,ΣΥΝΕΡΓΑΤΙΚΟ ΤΑΜΙΕΥΤΗΡΙΟ ΛΕΜΕΣΟΥ,Λ/ΣΟΣ  (ΑΓ. ΖΩΝΗ)",
      "district": "ΕΠΑΡΧΙΑ ΛΕΜΕΣΟΥ",
      "subDistrict": "ΑΝΑΤΟΛΙΚΗΣ ΛΕΜΕΣΟΥ",
      "image": "Α-3031-0001Α-BUILDING-S.jpg"
    },
    {
      "id": "Α-3031-0001Β",
      "lat": 34.683505,
      "lon": 33.046379,
      "type": "ΔΗΜΟΣΙΟ",
      "capacity": "200",
      "signNumber": "0001",
      "address": "ΓΛΑΔΣΤΩΝΟΣ 97 & ΑΝΤΩΝΗ ΛΟΥΚΑΙΔΗ,ΣΥΝΕΡΓΑΤΙΚΟ ΤΑΜΙΕΥΤΗΡΙΟ ΛΕΜΕΣΟΥ,Λ/ΣΟΣ  (ΑΓ. ΖΩΝΗ)",
      "district": "ΕΠΑΡΧΙΑ ΛΕΜΕΣΟΥ",
      "subDistrict": "ΑΝΑΤΟΛΙΚΗΣ ΛΕΜΕΣΟΥ",
      "image": "Α-3031-0001Β-BUILDING-S.jpg"
    },
    {
      "id": "Α-3031-0001Γ",
      "lat": 34.683505,
      "lon": 33.046379,
      "type": "ΔΗΜΟΣΙΟ",
      "capacity": "200",
      "signNumber": "0001",
      "address": "ΓΛΑΔΣΤΩΝΟΣ 97 & ΑΝΤΩΝΗ ΛΟΥΚΑΙΔΗ,ΣΥΝΕΡΓΑΤΙΚΟ ΤΑΜΙΕΥΤΗΡΙΟ ΛΕΜΕΣΟΥ,Λ/ΣΟΣ  (ΑΓ. ΖΩΝΗ)",
      "district": "ΕΠΑΡΧΙΑ ΛΕΜΕΣΟΥ",
      "subDistrict": "ΑΝΑΤΟΛΙΚΗΣ ΛΕΜΕΣΟΥ",
      "image": "Α-3031-0001Γ-BUILDING-S.jpg"
    },
    {
      "id": "Α-3031-0001Δ",
      "lat": 34.683505,
      "lon": 33.046379,
      "type": "ΔΗΜΟΣΙΟ",
      "capacity": "200",
      "signNumber": "0001",
      "address": "ΓΛΑΔΣΤΩΝΟΣ 97 & ΑΝΤΩΝΗ ΛΟΥΚΑΙΔΗ,ΣΥΝΕΡΓΑΤΙΚΟ ΤΑΜΙΕΥΤΗΡΙΟ ΛΕΜΕΣΟΥ,Λ/ΣΟΣ  (ΑΓ. ΖΩΝΗ)",
      "district": "ΕΠΑΡΧΙΑ ΛΕΜΕΣΟΥ",
      "subDistrict": "ΑΝΑΤΟΛΙΚΗΣ ΛΕΜΕΣΟΥ",
      "image": "Α-3031-0001Δ-BUILDING-S.jpg"
    },
    {
      "id": "Α-3032-0047",
      "lat": 34.682482,
      "lon": 33.047116,
      "type": "ΔΗΜΟΣΙΟ",
      "capacity": "150",
      "signNumber": "0047",
      "address": "ΓΛΑΔΣΤΩΝΟΣ 114 & ΚΑΡΑΙΣΚΑΚΗ, Λ/ΣΟΣ (ΑΓ. ΤΡΙΑΔΑ)",
      "district": "ΕΠΑΡΧΙΑ ΛΕΜΕΣΟΥ",
      "subDistrict": "ΑΝΑΤΟΛΙΚΗΣ ΛΕΜΕΣΟΥ",
      "image": "Α-3032-0047-BUILDING-S.jpg"
    },
    {
      "id": "Α-3032-0048Α",
      "lat": 34.682416,
      "lon": 33.047516,
      "type": "ΔΗΜΟΣΙΟ",
      "capacity": "150",
      "signNumber": "0048",
      "address": "ΓΕΩΡΓΙΟΥ ΚΑΡΑΙΣΚΑΚΗ 19,ΡΟΥΣΟΣ ΜΠΙΛΝΤΙΝΚ,Λ/ΣΟΣ (ΑΓ. ΤΡΙΑΔΑ)",
      "district": "ΕΠΑΡΧΙΑ ΛΕΜΕΣΟΥ",
      "subDistrict": "ΑΝΑΤΟΛΙΚΗΣ ΛΕΜΕΣΟΥ",
      "image": "Α-3032-0048Α-BUILDING-S.jpg"
    },
    {
      "id": "Α-3032-0048Β",
      "lat": 34.682416,
      "lon": 33.047516,
      "type": "ΔΗΜΟΣΙΟ",
      "capacity": "150",
      "signNumber": "0048",
      "address": "ΓΕΩΡΓΙΟΥ ΚΑΡΑΙΣΚΑΚΗ 19,ΡΟΥΣΟΣ ΜΠΙΛΝΤΙΝΚ ΡΟΥΣΟΣ ΜΠΙΛΝΤΙΝΚ,Λ/ΣΟΣ (ΑΓ. ΤΡΙΑΔΑ)",
      "district": "ΕΠΑΡΧΙΑ ΛΕΜΕΣΟΥ",
      "subDistrict": "ΑΝΑΤΟΛΙΚΗΣ ΛΕΜΕΣΟΥ",
      "image": "Α-3032-0048Β-BUILDING-S.jpg"
    },
    {
      "id": "Α-3032-0049Α",
      "lat": 34.682394,
      "lon": 33.047714,
      "type": "ΔΗΜΟΣΙΟ",
      "capacity": "105",
      "signNumber": "0049",
      "address": "ΓΕΩΡΓΙΟΥ ΚΑΡΑΙΣΚΑΚΗ 36-38 ΚΑΝΙΚΑ ΑΛΕΞΑΝΤΕΡ ΣΕΝΤΕΡ,Λ/ΣΟΣ (ΑΓ. ΤΡΙΑΔΑ)",
      "district": "ΕΠΑΡΧΙΑ ΛΕΜΕΣΟΥ",
      "subDistrict": "ΑΝΑΤΟΛΙΚΗΣ ΛΕΜΕΣΟΥ",
      "image": "Α-3032-0049Α-BUILDING-S.jpg"
    },
    {
      "id": "Α-3032-0052Α",
      "lat": 34.682799,
      "lon": 33.048566,
      "type": "ΔΗΜΟΣΙΟ",
      "capacity": "110",
      "signNumber": "0052",
      "address": "ΦΙΛΟΚΥΠΡΟΥ 3 (ΖΕΝΙΑ - ΜΑΡΙΝΑ), Λ/ΣΟΣ (ΑΓ. ΤΡΙΑΔΑ)",
      "district": "ΕΠΑΡΧΙΑ ΛΕΜΕΣΟΥ",
      "subDistrict": "ΑΝΑΤΟΛΙΚΗΣ ΛΕΜΕΣΟΥ",
      "image": "Α-3032-0052Α-BUILDING-S.jpg"
    },
    {
      "id": "Α-3032-0137",
      "lat": 34.683656,
      "lon": 33.050043,
      "type": "ΔΗΜΟΣΙΟ",
      "capacity": "60",
      "signNumber": "0137",
      "address": "ΓΛΑΔΣΤΩΝΟΣ 119-121, Λ/ΣΟΣ  (ΑΓ. ΖΩΝΗ)",
      "district": "ΕΠΑΡΧΙΑ ΛΕΜΕΣΟΥ",
      "subDistrict": "ΑΝΑΤΟΛΙΚΗΣ ΛΕΜΕΣΟΥ",
      "image": "Α-3032-0137-BUILDING-S.jpg"
    },
    {
      "id": "Α-3032-0148Α",
      "lat": 34.683047,
      "lon": 33.048136,
      "type": "ΔΗΜΟΣΙΟ",
      "capacity": "105",
      "signNumber": "0148",
      "address": "ΓΛΑΔΣΤΩΝΟΣ 120 & ΦΙΛΟΚΥΠΡΟΥ,ΦΟΛΟΥΝΕ ΧΑΟΥΣ,Λ/ΣΟΣ (ΑΓ. ΤΡΙΑΔΑ)",
      "district": "ΕΠΑΡΧΙΑ ΛΕΜΕΣΟΥ",
      "subDistrict": "ΑΝΑΤΟΛΙΚΗΣ ΛΕΜΕΣΟΥ",
      "image": "Α-3032-0148Α-BUILDING-S.jpg"
    },
    {
      "id": "Α-3032-0052Β",
      "lat": 34.682799,
      "lon": 33.048566,
      "type": "ΔΗΜΟΣΙΟ",
      "capacity": "110",
      "signNumber": "0052",
      "address": "ΦΙΛΟΚΥΠΡΟΥ 3 (ΖΕΝΙΑ - ΜΑΡΙΝΑ), Λ/ΣΟΣ (ΑΓ. ΤΡΙΑΔΑ)",
      "district": "ΕΠΑΡΧΙΑ ΛΕΜΕΣΟΥ",
      "subDistrict": "ΑΝΑΤΟΛΙΚΗΣ ΛΕΜΕΣΟΥ",
      "image": "Α-3032-0052Β-BUILDING-S.jpg"
    },
    {
      "id": "Α-3032-9619Α",
      "lat": 34.680785,
      "lon": 33.049199,
      "type": "ΔΗΜΟΣΙΟ",
      "capacity": "125",
      "signNumber": "9619",
      "address": "ΓΕΩΡΓΙΟΥ ΚΑΡΑΙΣΚΑΚΗ 6, ΠΡΑΗΣ ΓΟΥΩΤΕΡ ΧΑΟΥΣ ΚΟΥΠΕΡΣ,Λ/ΣΟΣ (ΑΓ. ΤΡΙΑΔΑ)",
      "district": "ΕΠΑΡΧΙΑ ΛΕΜΕΣΟΥ",
      "subDistrict": "ΑΝΑΤΟΛΙΚΗΣ ΛΕΜΕΣΟΥ",
      "image": "Α-3032-9619Α-BUILDING-S.jpg"
    },
    {
      "id": "Α-3032-9619Β",
      "lat": 34.680785,
      "lon": 33.049199,
      "type": "ΔΗΜΟΣΙΟ",
      "capacity": "125",
      "signNumber": "9619",
      "address": "ΓΕΩΡΓΙΟΥ ΚΑΡΑΙΣΚΑΚΗ 6, ΠΡΑΗΣ ΓΟΥΩΤΕΡ ΧΑΟΥΣ ΚΟΥΠΕΡΣ,Λ/ΣΟΣ (ΑΓ. ΤΡΙΑΔΑ)",
      "district": "ΕΠΑΡΧΙΑ ΛΕΜΕΣΟΥ",
      "subDistrict": "ΑΝΑΤΟΛΙΚΗΣ ΛΕΜΕΣΟΥ",
      "image": "Α-3032-9619Β-BUILDING-S.jpg"
    },
    {
      "id": "Α-3032-0046Α",
      "lat": 34.68375,
      "lon": 33.050575,
      "type": "ΔΗΜΟΣΙΟ",
      "capacity": "125",
      "signNumber": "0046",
      "address": "ΓΛΑΔΣΤΩΝΟΣ 131,ΚΕΡΜΙΑ ΚΩΡΤ,Λ/ΣΟΣ  (ΑΓ. ΖΩΝΗ)",
      "district": "ΕΠΑΡΧΙΑ ΛΕΜΕΣΟΥ",
      "subDistrict": "ΑΝΑΤΟΛΙΚΗΣ ΛΕΜΕΣΟΥ",
      "image": "Α-3032-0046Α-BUILDING-S.jpg"
    },
    {
      "id": "Α-3032-0046Β",
      "lat": 34.68375,
      "lon": 33.050575,
      "type": "ΔΗΜΟΣΙΟ",
      "capacity": "125",
      "signNumber": "0046",
      "address": "ΓΛΑΔΣΤΩΝΟΣ 131,ΚΕΡΜΙΑ ΚΩΡΤ ΚΕΡΜΙΑ ΚΩΡΤ,Λ/ΣΟΣ  (ΑΓ. ΖΩΝΗ)",
      "district": "ΕΠΑΡΧΙΑ ΛΕΜΕΣΟΥ",
      "subDistrict": "ΑΝΑΤΟΛΙΚΗΣ ΛΕΜΕΣΟΥ",
      "image": "Α-3032-0046Β-BUILDING-S.jpg"
    },
    {
      "id": "Α-3032-0148Β",
      "lat": 34.683047,
      "lon": 33.048136,
      "type": "ΔΗΜΟΣΙΟ",
      "capacity": "150",
      "signNumber": "0048",
      "address": "ΓΕΩΡΓΙΟΥ ΚΑΡΑΙΣΚΑΚΗ 19,ΡΟΥΣΟΣ ΜΠΙΛΝΤΙΝΚ ΡΟΥΣΟΣ ΜΠΙΛΝΤΙΝΚ,Λ/ΣΟΣ (ΑΓ. ΤΡΙΑΔΑ)",
      "district": "ΕΠΑΡΧΙΑ ΛΕΜΕΣΟΥ",
      "subDistrict": "ΑΝΑΤΟΛΙΚΗΣ ΛΕΜΕΣΟΥ",
      "image": "Α-3032-0048Β-BUILDING-S.jpg"
    },
    {
      "id": "Α-3032-0049Α",
      "lat": 34.682394,
      "lon": 33.047714,
      "type": "ΔΗΜΟΣΙΟ",
      "capacity": "105",
      "signNumber": "0049",
      "address": "ΓΕΩΡΓΙΟΥ ΚΑΡΑΙΣΚΑΚΗ 36-38 ΚΑΝΙΚΑ ΑΛΕΞΑΝΤΕΡ ΣΕΝΤΕΡ,Λ/ΣΟΣ (ΑΓ. ΤΡΙΑΔΑ)",
      "district": "ΕΠΑΡΧΙΑ ΛΕΜΕΣΟΥ",
      "subDistrict": "ΑΝΑΤΟΛΙΚΗΣ ΛΕΜΕΣΟΥ",
      "image": "Α-3032-0049Α-BUILDING-S.jpg"
    },
    {
      "id": "Α-3032-0052Α",
      "lat": 34.682799,
      "lon": 33.048566,
      "type": "ΔΗΜΟΣΙΟ",
      "capacity": "110",
      "signNumber": "0052",
      "address": "ΦΙΛΟΚΥΠΡΟΥ 3 (ΖΕΝΙΑ - ΜΑΡΙΝΑ), Λ/ΣΟΣ (ΑΓ. ΤΡΙΑΔΑ)",
      "district": "ΕΠΑΡΧΙΑ ΛΕΜΕΣΟΥ",
      "subDistrict": "ΑΝΑΤΟΛΙΚΗΣ ΛΕΜΕΣΟΥ",
      "image": "Α-3032-0052Α-BUILDING-S.jpg"
    },
    {
      "id": "Α-3032-0137",
      "lat": 34.683656,
      "lon": 33.050043,
      "type": "ΔΗΜΟΣΙΟ",
      "capacity": "60",
      "signNumber": "0137",
      "address": "ΓΛΑΔΣΤΩΝΟΣ 119-121, Λ/ΣΟΣ  (ΑΓ. ΖΩΝΗ)",
      "district": "ΕΠΑΡΧΙΑ ΛΕΜΕΣΟΥ",
      "subDistrict": "ΑΝΑΤΟΛΙΚΗΣ ΛΕΜΕΣΟΥ",
      "image": "Α-3032-0137-BUILDING-S.jpg"
    },
    {
      "id": "Α-3032-0148Α",
      "lat": 34.683047,
      "lon": 33.048136,
      "type": "ΔΗΜΟΣΙΟ",
      "capacity": "105",
      "signNumber": "0148",
      "address": "ΓΛΑΔΣΤΩΝΟΣ 120 & ΦΙΛΟΚΥΠΡΟΥ,ΦΟΛΟΥΝΕ ΧΑΟΥΣ ΦΟΛΟΥΝΕ ΧΑΟΥΣ,Λ/ΣΟΣ (ΑΓ. ΤΡΙΑΔΑ)",
      "district": "ΕΠΑΡΧΙΑ ΛΕΜΕΣΟΥ",
      "subDistrict": "ΑΝΑΤΟΛΙΚΗΣ ΛΕΜΕΣΟΥ",
      "image": "Α-3032-0148Α-BUILDING-S.jpg"
    },
    {
      "id": "Α-3032-0052Β",
      "lat": 34.682799,
      "lon": 33.048566,
      "type": "ΔΗΜΟΣΙΟ",
      "capacity": "110",
      "signNumber": "0052",
      "address": "ΦΙΛΟΚΥΠΡΟΥ 3 (ΖΕΝΙΑ - ΜΑΡΙΝΑ), Λ/ΣΟΣ (ΑΓ. ΤΡΙΑΔΑ)",
      "district": "ΕΠΑΡΧΙΑ ΛΕΜΕΣΟΥ",
      "subDistrict": "ΑΝΑΤΟΛΙΚΗΣ ΛΕΜΕΣΟΥ",
      "image": "Α-3032-0052Β-BUILDING-S.jpg"
    },
    {
      "id": "Α-3032-9619Α",
      "lat": 34.680785,
      "lon": 33.049199,
      "type": "ΔΗΜΟΣΙΟ",
      "capacity": "125",
      "signNumber": "9619",
      "address": "ΓΕΩΡΓΙΟΥ ΚΑΡΑΙΣΚΑΚΗ 6, ΠΡΑΗΣ ΓΟΥΩΤΕΡ ΧΑΟΥΣ ΚΟΥΠΕΡΣ ΠΡΑΗΣ ΓΟΥΩΤΕΡ ΧΑΟΥΣ ΚΟΥΠΕΡΣ,Λ/ΣΟΣ (ΑΓ. ΤΡΙΑΔΑ)",
      "district": "ΕΠΑΡΧΙΑ ΛΕΜΕΣΟΥ",
      "subDistrict": "ΑΝΑΤΟΛΙΚΗΣ ΛΕΜΕΣΟΥ",
      "image": "Α-3032-9619Α-BUILDING-S.jpg"
    },
    {
      "id": "Α-3032-9619Β",
      "lat": 34.680785,
      "lon": 33.049199,
      "type": "ΔΗΜΟΣΙΟ",
      "capacity": "125",
      "signNumber": "9619",
      "address": "ΓΕΩΡΓΙΟΥ ΚΑΡΑΙΣΚΑΚΗ 6, ΠΡΑΗΣ ΓΟΥΩΤΕΡ ΧΑΟΥΣ ΚΟΥΠΕΡΣ,Λ/ΣΟΣ (ΑΓ. ΤΡΙΑΔΑ)",
      "district": "ΕΠΑΡΧΙΑ ΛΕΜΕΣΟΥ",
      "subDistrict": "ΑΝΑΤΟΛΙΚΗΣ ΛΕΜΕΣΟΥ",
      "image": "Α-3032-9619Β-BUILDING-S.jpg"
    },
    {
      "id": "Α-3032-0046Α",
      "lat": 34.68375,
      "lon": 33.050575,
      "type": "ΔΗΜΟΣΙΟ",
      "capacity": "125",
      "signNumber": "0046",
      "address": "ΓΛΑΔΣΤΩΝΟΣ 131,ΚΕΡΜΙΑ ΚΩΡΤ,Λ/ΣΟΣ  (ΑΓ. ΖΩΝΗ)",
      "district": "ΕΠΑΡΧΙΑ ΛΕΜΕΣΟΥ",
      "subDistrict": "ΑΝΑΤΟΛΙΚΗΣ ΛΕΜΕΣΟΥ",
      "image": "Α-3032-0046Α-BUILDING-S.jpg"
    },
    {
      "id": "Α-3032-0046Β",
      "lat": 34.68375,
      "lon": 33.050575,
      "type": "ΔΗΜΟΣΙΟ",
      "capacity": "125",
      "signNumber": "0046",
      "address": "ΓΛΑΔΣΤΩΝΟΣ 131,ΚΕΡΜΙΑ ΚΩΡΤ,Λ/ΣΟΣ  (ΑΓ. ΖΩΝΗ)",
      "district": "ΕΠΑΡΧΙΑ ΛΕΜΕΣΟΥ",
      "subDistrict": "ΑΝΑΤΟΛΙΚΗΣ ΛΕΜΕΣΟΥ",
      "image": "Α-3032-0046Β-BUILDING-S.jpg"
    },
    {
      "id": "Α-3032-0148Β",
      "lat": 34.683047,
      "lon": 33.048136,
      "type": "ΔΗΜΟΣΙΟ",
      "capacity": "105",
      "signNumber": "0148",
      "address": "ΓΛΑΔΣΤΩΝΟΣ 120 & ΦΙΛΟΚΥΠΡΟΥ,ΦΟΛΟΥΝΕ ΧΑΟΥΣ,Λ/ΣΟΣ (ΑΓ. ΤΡΙΑΔΑ)",
      "district": "ΕΠΑΡΧΙΑ ΛΕΜΕΣΟΥ",
      "subDistrict": "ΑΝΑΤΟΛΙΚΗΣ ΛΕΜΕΣΟΥ",
      "image": "Α-3032-0148Β-BUILDING-S.jpg"
    },
    {
      "id": "Α-3032-0049Β",
      "lat": 34.682394,
      "lon": 33.047714,
      "type": "ΔΗΜΟΣΙΟ",
      "capacity": "110",
      "signNumber": "0049",
      "address": "ΓΕΩΡΓΙΟΥ ΚΑΡΑΙΣΚΑΚΗ 36-38 ΚΑΝΙΚΑ ΑΛΕΞΑΝΤΕΡ ΣΕΝΤΕΡ,Λ/ΣΟΣ (ΑΓ. ΤΡΙΑΔΑ)",
      "district": "ΕΠΑΡΧΙΑ ΛΕΜΕΣΟΥ",
      "subDistrict": "ΑΝΑΤΟΛΙΚΗΣ ΛΕΜΕΣΟΥ",
      "image": "Α-3032-0049Β-BUILDING-S.jpg"
    },
    {
      "id": "Α-3035-0165Β",
      "lat": 34.678955,
      "lon": 33.051246,
      "type": "ΔΗΜΟΣΙΟ",
      "capacity": "100",
      "signNumber": "0165",
      "address": "28ης ΟΚΤΩΒΡΙΟΥ & ΑΙΜΙΛΙΟΥ ΧΟΥΡΜΟΖΙΟΥ,ΛΟΦΙΤΗΣ,Λ/ΣΟΣ (ΑΓ. ΤΡΙΑΔΑ)",
      "district": "ΕΠΑΡΧΙΑ ΛΕΜΕΣΟΥ",
      "subDistrict": "ΑΝΑΤΟΛΙΚΗΣ ΛΕΜΕΣΟΥ",
      "image": "Α-3035-0165Β-BUILDING-S.jpg"
    },
    {
      "id": "Α-3035-0165Α",
      "lat": 34.678955,
      "lon": 33.051246,
      "type": "ΔΗΜΟΣΙΟ",
      "capacity": "200",
      "signNumber": "0165",
      "address": "28ης ΟΚΤΩΒΡΙΟΥ & ΑΙΜΙΛΙΟΥ ΧΟΥΡΜΟΖΙΟΥ,ΛΟΦΙΤΗΣ,Λ/ΣΟΣ (ΑΓ. ΤΡΙΑΔΑ)",
      "district": "ΕΠΑΡΧΙΑ ΛΕΜΕΣΟΥ",
      "subDistrict": "ΑΝΑΤΟΛΙΚΗΣ ΛΕΜΕΣΟΥ",
      "image": "Α-3035-0165Α-BUILDING-S.jpg"
    },
    {
      "id": "Α-3035-0155",
      "lat": 34.682597,
      "lon": 33.051465,
      "type": "ΔΗΜΟΣΙΟ",
      "capacity": "100",
      "signNumber": "0155",
      "address": "ΑΓ. ΑΝΔΡΕΟΥ 353 ΝΤΟΜΟΚΑΖΑ ΚΩΡΤ,Λ/ΣΟΣ (ΑΓ. ΤΡΙΑΔΑ)",
      "district": "ΕΠΑΡΧΙΑ ΛΕΜΕΣΟΥ",
      "subDistrict": "ΑΝΑΤΟΛΙΚΗΣ ΛΕΜΕΣΟΥ",
      "image": "Α-3035-0155-BUILDING-S.jpg"
    },
    {
      "id": "Α-3035-0160Α",
      "lat": 34.683376,
      "lon": 33.053244,
      "type": "ΔΗΜΟΣΙΟ",
      "capacity": "115",
      "signNumber": "0160",
      "address": "ΟΛΥΜΠΙΩΝ 23 ΛΙΠΡΑ ΤΑΟΥΕΡ,Λ/ΣΟΣ (ΑΓ. ΤΡΙΑΔΑ)",
      "district": "ΕΠΑΡΧΙΑ ΛΕΜΕΣΟΥ",
      "subDistrict": "ΑΝΑΤΟΛΙΚΗΣ ΛΕΜΕΣΟΥ",
      "image": "Α-3035-0160Α-BUILDING-S.jpg"
    },
    {
      "id": "Α-3035-0160Β",
      "lat": 34.683376,
      "lon": 33.053244,
      "type": "ΔΗΜΟΣΙΟ",
      "capacity": "115",
      "signNumber": "0160",
      "address": "ΟΛΥΜΠΙΩΝ 23 ΛΙΠΡΑ ΤΑΟΥΕΡ,Λ/ΣΟΣ (ΑΓ. ΤΡΙΑΔΑ)",
      "district": "ΕΠΑΡΧΙΑ ΛΕΜΕΣΟΥ",
      "subDistrict": "ΑΝΑΤΟΛΙΚΗΣ ΛΕΜΕΣΟΥ",
      "image": "Α-3035-0160Β-BUILDING-S.jpg"
    },
    {
      "id": "Α-3036-0135Α",
      "lat": 34.674159,
      "lon": 33.04301,
      "type": "ΔΗΜΟΣΙΟ",
      "capacity": "125",
      "signNumber": "0135",
      "address": "ΚΙΤΙΟΥ ΚΥΠΡΙΑΝΟΥ 15, Λ/ΣΟΣ (ΑΓ. ΝΑΠΑ)",
      "district": "ΕΠΑΡΧΙΑ ΛΕΜΕΣΟΥ",
      "subDistrict": "ΑΝΑΤΟΛΙΚΗΣ ΛΕΜΕΣΟΥ",
      "image": "Α-3036-0135Α-BUILDING-S.jpg"
    },
    {
      "id": "Α-3036-0252",
      "lat": 34.674184,
      "lon": 33.044543,
      "type": "ΔΗΜΟΣΙΟ",
      "capacity": "40",
      "signNumber": "0252",
      "address": "ΑΓ. ΑΝΔΡΕΟΥ 59, Λ/ΣΟΣ (ΑΓ. ΝΑΠΑ)",
      "district": "ΕΠΑΡΧΙΑ ΛΕΜΕΣΟΥ",
      "subDistrict": "ΑΝΑΤΟΛΙΚΗΣ ΛΕΜΕΣΟΥ",
      "image": "Α-3036-0252-BUILDING-S.jpg"
    },
    {
      "id": "Α-3036-0135Β",
      "lat": 34.674159,
      "lon": 33.04301,
      "type": "ΔΗΜΟΣΙΟ",
      "capacity": "125",
      "signNumber": "0135",
      "address": "ΚΙΤΙΟΥ ΚΥΠΡΙΑΝΟΥ 15, Λ/ΣΟΣ (ΑΓ. ΝΑΠΑ)",
      "district": "ΕΠΑΡΧΙΑ ΛΕΜΕΣΟΥ",
      "subDistrict": "ΑΝΑΤΟΛΙΚΗΣ ΛΕΜΕΣΟΥ",
      "image": "Α-3036-0135Β-BUILDING-S.jpg"
    },
    {
      "id": "Α-3040-0138",
      "lat": 34.67993,
      "lon": 33.04454,
      "type": "ΔΗΜΟΣΙΟ",
      "capacity": "60",
      "signNumber": "0138",
      "address": "ΗΠΕΙΡΟΥ 12, Λ/ΣΟΣ (ΑΓ. ΤΡΙΑΔΑ)",
      "district": "ΕΠΑΡΧΙΑ ΛΕΜΕΣΟΥ",
      "subDistrict": "ΑΝΑΤΟΛΙΚΗΣ ΛΕΜΕΣΟΥ",
      "image": "Α-3040-0138-BUILDING-S.jpg"
    },
    {
      "id": "Α-3040-0169Β",
      "lat": 34.677495,
      "lon": 33.044657,
      "type": "ΔΗΜΟΣΙΟ",
      "capacity": "150",
      "signNumber": "0169",
      "address": "ΑΝΕΞΑΡΤΗΣΙΑΣ 117 HIGH STREET,Λ/ΣΟΣ (ΚΑΘΟΛΙΚΗ)",
      "district": "ΕΠΑΡΧΙΑ ΛΕΜΕΣΟΥ",
      "subDistrict": "ΑΝΑΤΟΛΙΚΗΣ ΛΕΜΕΣΟΥ",
      "image": "Α-3040-0169Β-BUILDING-S.jpg"
    },
    {
      "id": "Α-3040-0169Α",
      "lat": 34.677495,
      "lon": 33.044657,
      "type": "ΔΗΜΟΣΙΟ",
      "capacity": "150",
      "signNumber": "0169",
      "address": "ΑΝΕΞΑΡΤΗΣΙΑΣ 117 HIGH STREET,Λ/ΣΟΣ (ΚΑΘΟΛΙΚΗ)",
      "district": "ΕΠΑΡΧΙΑ ΛΕΜΕΣΟΥ",
      "subDistrict": "ΑΝΑΤΟΛΙΚΗΣ ΛΕΜΕΣΟΥ",
      "image": "Α-3040-0169Α-BUILDING-S.jpg"
    },
    {
      "id": "Α-3040-9614Α",
      "lat": 34.67982,
      "lon": 33.0437,
      "type": "ΔΗΜΟΣΙΟ",
      "capacity": "30",
      "signNumber": "9614",
      "address": "ΑΝΕΞΑΡΤΗΣΙΑΣ 167 ΜΕΓΑΡΟΝ ΑΡΓΥΡΟΠΟΥΛΟΣ,Λ/ΣΟΣ (ΚΑΘΟΛΙΚΗ)",
      "district": "ΕΠΑΡΧΙΑ ΛΕΜΕΣΟΥ",
      "subDistrict": "ΑΝΑΤΟΛΙΚΗΣ ΛΕΜΕΣΟΥ",
      "image": "Α-3040-9614Α-BUILDING-S.jpg"
    },
    {
      "id": "Α-3040-9614Β",
      "lat": 34.67982,
      "lon": 33.0437,
      "type": "ΔΗΜΟΣΙΟ",
      "capacity": "30",
      "signNumber": "9614",
      "address": "ΑΝΕΞΑΡΤΗΣΙΑΣ 167 ΜΕΓΑΡΟΝ ΑΡΓΥΡΟΠΟΥΛΟΣ,Λ/ΣΟΣ (ΚΑΘΟΛΙΚΗ)",
      "district": "ΕΠΑΡΧΙΑ ΛΕΜΕΣΟΥ",
      "subDistrict": "ΑΝΑΤΟΛΙΚΗΣ ΛΕΜΕΣΟΥ",
      "image": "Α-3040-9614Β-BUILDING-S.jpg"
    },
    {
      "id": "Α-3041-0045Α",
      "lat": 34.681141,
      "lon": 33.044587,
      "type": "ΔΗΜΟΣΙΟ",
      "capacity": "125",
      "signNumber": "0045",
      "address": "ΓΛΑΔΣΤΩΝΟΣ 69 ΑΚΡΟΠΟΛΗ ΣΕΝΤΕΡ,Λ/ΣΟΣ  (ΑΓ. ΖΩΝΗ)",
      "district": "ΕΠΑΡΧΙΑ ΛΕΜΕΣΟΥ",
      "subDistrict": "ΑΝΑΤΟΛΙΚΗΣ ΛΕΜΕΣΟΥ",
      "image": "Α-3041-0045Α-BUILDING-S.jpg"
    },
    {
      "id": "Α-3041-0045Β",
      "lat": 34.681141,
      "lon": 33.044587,
      "type": "ΔΗΜΟΣΙΟ",
      "capacity": "125",
      "signNumber": "0045",
      "address": "ΓΛΑΔΣΤΩΝΟΣ 69 ΑΚΡΟΠΟΛΗ ΣΕΝΤΕΡ,Λ/ΣΟΣ  (ΑΓ. ΖΩΝΗ)",
      "district": "ΕΠΑΡΧΙΑ ΛΕΜΕΣΟΥ",
      "subDistrict": "ΑΝΑΤΟΛΙΚΗΣ ΛΕΜΕΣΟΥ",
      "image": "Α-3041-0045Β-BUILDING-S.jpg"
    },
    {
      "id": "Α-3041-0142",
      "lat": 34.680971,
      "lon": 33.044038,
      "type": "ΔΗΜΟΣΙΟ",
      "capacity": "130",
      "signNumber": "0142",
      "address": "ΓΛΑΔΣΤΩΝΟΣ 59, Λ/ΣΟΣ  (ΑΓ. ΖΩΝΗ)",
      "district": "ΕΠΑΡΧΙΑ ΛΕΜΕΣΟΥ",
      "subDistrict": "ΑΝΑΤΟΛΙΚΗΣ ΛΕΜΕΣΟΥ",
      "image": "Α-3041-0142-BUILDING-S.jpg"
    },
    {
      "id": "Α-3041-0149Α",
      "lat": 34.681388,
      "lon": 33.045207,
      "type": "ΔΗΜΟΣΙΟ",
      "capacity": "110",
      "signNumber": "0149",
      "address": "ΓΛΑΔΣΤΩΝΟΣ & ΦΩΤΗ ΚΟΛΑΚΙΔΗ 52 ΕΛΛΗΝΙΚΗ ΤΡΑΠΕΖΑ,Λ/ΣΟΣ  (ΑΓ. ΖΩΝΗ)",
      "district": "ΕΠΑΡΧΙΑ ΛΕΜΕΣΟΥ",
      "subDistrict": "ΑΝΑΤΟΛΙΚΗΣ ΛΕΜΕΣΟΥ",
      "image": "Α-3041-0149Α-BUILDING-S.jpg"
    },
    {
      "id": "Α-3041-9611",
      "lat": 34.675689,
      "lon": 33.043524,
      "type": "ΔΗΜΟΣΙΟ",
      "capacity": "100",
      "signNumber": "9611",
      "address": "ΑΘΗΝΩΝ 29, Λ/ΣΟΣ (ΑΓ. ΝΑΠΑ)",
      "district": "ΕΠΑΡΧΙΑ ΛΕΜΕΣΟΥ",
      "subDistrict": "ΑΝΑΤΟΛΙΚΗΣ ΛΕΜΕΣΟΥ",
      "image": "Α-3041-9611-BUILDING-S.jpg"
    },
    {
      "id": "Α-3041-0149Β",
      "lat": 34.681388,
      "lon": 33.045207,
      "type": "ΔΗΜΟΣΙΟ",
      "capacity": "110",
      "signNumber": "0149",
      "address": "ΓΛΑΔΣΤΩΝΟΣ & ΦΩΤΗ ΚΟΛΑΚΙΔΗ 52 ΕΛΛΗΝΙΚΗ ΤΡΑΠΕΖΑ,Λ/ΣΟΣ  (ΑΓ. ΖΩΝΗ)",
      "district": "ΕΠΑΡΧΙΑ ΛΕΜΕΣΟΥ",
      "subDistrict": "ΑΝΑΤΟΛΙΚΗΣ ΛΕΜΕΣΟΥ",
      "image": "Α-3041-0149Β-BUILDING-S.jpg"
    },
    {
      "id": "Α-3070-0365Α",
      "lat": 34.6904,
      "lon": 33.02003,
      "type": "ΔΗΜΟΣΙΟ",
      "capacity": "110",
      "signNumber": "0365",
      "address": "ΛΕΩΦ. ΣΠΥΡΟΥ ΚΥΠΡΙΑΝΟΥ 14, Λ/ΣΟΣ (ΑΓ. ΓΕΩΡΓΙΟΣ ΧΑΒ.)",
      "district": "ΕΠΑΡΧΙΑ ΛΕΜΕΣΟΥ",
      "subDistrict": "ΑΝΑΤΟΛΙΚΗΣ ΛΕΜΕΣΟΥ",
      "image": "Α-3070-0365Α-BUILDING-S.jpg"
    },
    {
      "id": "Α-3070-0365Β",
      "lat": 34.6904,
      "lon": 33.02003,
      "type": "ΔΗΜΟΣΙΟ",
      "capacity": "110",
      "signNumber": "0365",
      "address": "ΛΕΩΦ. ΣΠΥΡΟΥ ΚΥΠΡΙΑΝΟΥ 14, Λ/ΣΟΣ (ΑΓ. ΓΕΩΡΓΙΟΣ ΧΑΒ.)",
      "district": "ΕΠΑΡΧΙΑ ΛΕΜΕΣΟΥ",
      "subDistrict": "ΑΝΑΤΟΛΙΚΗΣ ΛΕΜΕΣΟΥ",
      "image": "Α-3070-0365Β-BUILDING-S.jpg"
    },
    {
      "id": "Α-3070-0295",
      "lat": 34.6922,
      "lon": 33.01605,
      "type": "ΔΗΜΟΣΙΟ",
      "capacity": "130",
      "signNumber": "0295",
      "address": "ΝΙΚΟΥ ΚΑΙ ΔΕΣΠΟΙΝΑΣ ΠΑΤΤΙΧΗ 108 ΜΕΓΑΡΟ ΚΩΝΣΤΑΝΤΙΝΙΔΗ,Λ/ΣΟΣ (ΑΓ. ΓΕΩΡΓΙΟΣ ΧΑΒ.)",
      "district": "ΕΠΑΡΧΙΑ ΛΕΜΕΣΟΥ",
      "subDistrict": "ΑΝΑΤΟΛΙΚΗΣ ΛΕΜΕΣΟΥ",
      "image": "Α-3070-0295-BUILDING-S.jpg"
    },
    {
      "id": "Α-3070-0295",
      "lat": 34.6922,
      "lon": 33.01605,
      "type": "ΔΗΜΟΣΙΟ",
      "capacity": "130",
      "signNumber": "0295",
      "address": "ΝΙΚΟΥ ΚΑΙ ΔΕΣΠΟΙΝΑΣ ΠΑΤΤΙΧΗ 108 ΜΕΓΑΡΟ ΚΩΝΣΤΑΝΤΙΝΙΔΗ,Λ/ΣΟΣ (ΑΓ. ΓΕΩΡΓΙΟΣ ΧΑΒ.)",
      "district": "ΕΠΑΡΧΙΑ ΛΕΜΕΣΟΥ",
      "subDistrict": "ΑΝΑΤΟΛΙΚΗΣ ΛΕΜΕΣΟΥ",
      "image": "Α-3070-0295-BUILDING-S.jpg"
    },
    {
      "id": "Α-3070-0365Β",
      "lat": 34.6904,
      "lon": 33.02003,
      "type": "ΔΗΜΟΣΙΟ",
      "capacity": "110",
      "signNumber": "0365",
      "address": "ΛΕΩΦ. ΣΠΥΡΟΥ ΚΥΠΡΙΑΝΟΥ 14, Λ/ΣΟΣ (ΑΓ. ΓΕΩΡΓΙΟΣ ΧΑΒ.)",
      "district": "ΕΠΑΡΧΙΑ ΛΕΜΕΣΟΥ",
      "subDistrict": "ΑΝΑΤΟΛΙΚΗΣ ΛΕΜΕΣΟΥ",
      "image": "Α-3070-0365Β-BUILDING-S.jpg"
    },
    {
      "id": "Α-3070-0199",
      "lat": 34.69031,
      "lon": 33.01933,
      "type": "ΔΗΜΟΣΙΟ",
      "capacity": "130",
      "signNumber": "0199",
      "address": "ΛΕΩΦ. ΣΠΥΡΟΥ ΚΥΠΡΙΑΝΟΥ 11Α, Λ/ΣΟΣ (ΑΓ. ΓΕΩΡΓΙΟΣ ΧΑΒ.)",
      "district": "ΕΠΑΡΧΙΑ ΛΕΜΕΣΟΥ",
      "subDistrict": "ΑΝΑΤΟΛΙΚΗΣ ΛΕΜΕΣΟΥ",
      "image": "Α-3070-0199-BUILDING-S.jpg"
    },
    {
      "id": "Α-3070-0402",
      "lat": 34.69115,
      "lon": 33.0215,
      "type": "ΔΗΜΟΣΙΟ",
      "capacity": "170",
      "signNumber": "0402",
      "address": "ΛΕΩΦ. ΣΠΥΡΟΥ ΚΥΠΡΙΑΝΟΥ 24, Λ/ΣΟΣ (ΑΓ. ΓΕΩΡΓΙΟΣ ΧΑΒ.)",
      "district": "ΕΠΑΡΧΙΑ ΛΕΜΕΣΟΥ",
      "subDistrict": "ΑΝΑΤΟΛΙΚΗΣ ΛΕΜΕΣΟΥ",
      "image": "Α-3070-0402-BUILDING-S.jpg"
    },
    {
      "id": "Α-3070-0414",
      "lat": 34.68965,
      "lon": 33.01846,
      "type": "ΔΗΜΟΣΙΟ",
      "capacity": "200",
      "signNumber": "0414",
      "address": "ΛΕΩΦ. ΣΠΥΡΟΥ ΚΥΠΡΙΑΝΟΥ 4, Λ/ΣΟΣ (ΑΓ. ΓΕΩΡΓΙΟΣ ΧΑΒ.)",
      "district": "ΕΠΑΡΧΙΑ ΛΕΜΕΣΟΥ",
      "subDistrict": "ΑΝΑΤΟΛΙΚΗΣ ΛΕΜΕΣΟΥ",
      "image": "Α-3070-0414-BUILDING-S.jpg"
    },
    {
      "id": "Α-3070-0415",
      "lat": 34.68995,
      "lon": 33.01933,
      "type": "ΔΗΜΟΣΙΟ",
      "capacity": "100",
      "signNumber": "0415",
      "address": "ΛΕΩΦ. ΣΠΥΡΟΥ ΚΥΠΡΙΑΝΟΥ 8 MSC HOUSE,Λ/ΣΟΣ (ΑΓ. ΓΕΩΡΓΙΟΣ ΧΑΒ.)",
      "district": "ΕΠΑΡΧΙΑ ΛΕΜΕΣΟΥ",
      "subDistrict": "ΑΝΑΤΟΛΙΚΗΣ ΛΕΜΕΣΟΥ",
      "image": "Α-3070-0415-BUILDING-S.jpg"
    },
    {
      "id": "Α-3070-0428",
      "lat": 34.689413,
      "lon": 33.018342,
      "type": "ΔΗΜΟΣΙΟ",
      "capacity": "100",
      "signNumber": "0428",
      "address": "ΝΙΚΟΥ ΚΑΙ ΔΕΣΠΟΙΝΑΣ ΠΑΤΤΙΧΗ 84, Λ/ΣΟΣ (ΑΓ. ΓΕΩΡΓΙΟΣ ΧΑΒ.)",
      "district": "ΕΠΑΡΧΙΑ ΛΕΜΕΣΟΥ",
      "subDistrict": "ΑΝΑΤΟΛΙΚΗΣ ΛΕΜΕΣΟΥ",
      "image": "Α-3070-0428-BUILDING-S.jpg"
    },
    {
      "id": "Α-3070-0434",
      "lat": 34.691,
      "lon": 33.02128,
      "type": "ΔΗΜΟΣΙΟ",
      "capacity": "40",
      "signNumber": "0434",
      "address": "ΛΕΩΦ. ΣΠΥΡΟΥ ΚΥΠΡΙΑΝΟΥ 24, Λ/ΣΟΣ (ΑΓ. ΓΕΩΡΓΙΟΣ ΧΑΒ.)",
      "district": "ΕΠΑΡΧΙΑ ΛΕΜΕΣΟΥ",
      "subDistrict": "ΑΝΑΤΟΛΙΚΗΣ ΛΕΜΕΣΟΥ",
      "image": "Α-3070-0434-BUILDING-S.jpg"
    },
    {
      "id": "Α-3071-0363",
      "lat": 34.68778,
      "lon": 33.02188,
      "type": "ΔΗΜΟΣΙΟ",
      "capacity": "50",
      "signNumber": "0363",
      "address": "ΑΝΝΗΣ ΜΑΡΙΑΣ 7, Λ/ΣΟΣ (ΑΓ. ΓΕΩΡΓΙΟΣ ΧΑΒ.)",
      "district": "ΕΠΑΡΧΙΑ ΛΕΜΕΣΟΥ",
      "subDistrict": "ΑΝΑΤΟΛΙΚΗΣ ΛΕΜΕΣΟΥ",
      "image": "Α-3071-0363-BUILDING-S.jpg"
    },
    {
      "id": "Α-3071-0433Α",
      "lat": 34.685335,
      "lon": 33.025392,
      "type": "ΔΗΜΟΣΙΟ",
      "capacity": "70",
      "signNumber": "0433",
      "address": "ΝΙΚΟΥ ΚΑΙ ΔΕΣΠΟΙΝΑΣ ΠΑΤΤΙΧΗ & ΣΠΗΛΙΩΝ, Λ/ΣΟΣ (ΑΓ. ΓΕΩΡΓΙΟΣ ΧΑΒ.)",
      "district": "ΕΠΑΡΧΙΑ ΛΕΜΕΣΟΥ",
      "subDistrict": "ΑΝΑΤΟΛΙΚΗΣ ΛΕΜΕΣΟΥ",
      "image": "Α-3071-0433Α-BUILDING-S.jpg"
    },
    {
      "id": "Α-3071-0433Β",
      "lat": 34.685335,
      "lon": 33.025392,
      "type": "ΔΗΜΟΣΙΟ",
      "capacity": "60",
      "signNumber": "0433",
      "address": "ΝΙΚΟΥ ΚΑΙ ΔΕΣΠΟΙΝΑΣ ΠΑΤΤΙΧΗ & ΣΠΗΛΙΩΝ, Λ/ΣΟΣ (ΑΓ. ΓΕΩΡΓΙΟΣ ΧΑΒ.)",
      "district": "ΕΠΑΡΧΙΑ ΛΕΜΕΣΟΥ",
      "subDistrict": "ΑΝΑΤΟΛΙΚΗΣ ΛΕΜΕΣΟΥ",
      "image": "Α-3071-0433Β-BUILDING-S.jpg"
    },
    {
      "id": "Α-3075-0370",
      "lat": 34.687687,
      "lon": 33.02855,
      "type": "ΔΗΜΟΣΙΟ",
      "capacity": "40",
      "signNumber": "0370",
      "address": "ΛΕΚΟΡΠΟΥΖΙΕ 27, Λ/ΣΟΣ( ΑΠ. ΠΕΤΡΟΥ&ΠΑΥΛΟΥ)",
      "district": "ΕΠΑΡΧΙΑ ΛΕΜΕΣΟΥ",
      "subDistrict": "ΑΝΑΤΟΛΙΚΗΣ ΛΕΜΕΣΟΥ",
      "image": "Α-3075-0370-BUILDING-S.jpg"
    },
    {
      "id": "Α-3075-0171",
      "lat": 34.690761,
      "lon": 33.030856,
      "type": "ΔΗΜΟΣΙΟ",
      "capacity": "200",
      "signNumber": "0171",
      "address": "ΓΚΡΟΠΙΟΥΣ, ΙΚΤΙΝΟΥ, ΚΑΛΛΙΚΡΑΤΗ FYSKO LOTUS PLAZA,Λ/ΣΟΣ( ΑΠ. ΠΕΤΡΟΥ&ΠΑΥΛΟΥ)",
      "district": "ΕΠΑΡΧΙΑ ΛΕΜΕΣΟΥ",
      "subDistrict": "ΑΝΑΤΟΛΙΚΗΣ ΛΕΜΕΣΟΥ",
      "image": "Α-3075-0171-BUILDING-S.jpg"
    },
    {
      "id": "Α-3075-0172",
      "lat": 34.690761,
      "lon": 33.030856,
      "type": "ΔΗΜΟΣΙΟ",
      "capacity": "200",
      "signNumber": "0172",
      "address": "ΓΚΡΟΠΙΟΥΣ, ΙΚΤΙΝΟΥ, ΚΑΛΛΙΚΡΑΤΗ FYSKO LOTUS PLAZA,Λ/ΣΟΣ( ΑΠ. ΠΕΤΡΟΥ&ΠΑΥΛΟΥ)",
      "district": "ΕΠΑΡΧΙΑ ΛΕΜΕΣΟΥ",
      "subDistrict": "ΑΝΑΤΟΛΙΚΗΣ ΛΕΜΕΣΟΥ",
      "image": "Α-3075-0172-BUILDING-S.jpg"
    },
    {
      "id": "Α-3075-0173",
      "lat": 34.690761,
      "lon": 33.030856,
      "type": "ΔΗΜΟΣΙΟ",
      "capacity": "200",
      "signNumber": "0173",
      "address": "ΓΚΡΟΠΙΟΥΣ, ΙΚΤΙΝΟΥ, ΚΑΛΛΙΚΡΑΤΗ FYSKO LOTUS PLAZA,Λ/ΣΟΣ( ΑΠ. ΠΕΤΡΟΥ&ΠΑΥΛΟΥ)",
      "district": "ΕΠΑΡΧΙΑ ΛΕΜΕΣΟΥ",
      "subDistrict": "ΑΝΑΤΟΛΙΚΗΣ ΛΕΜΕΣΟΥ",
      "image": "Α-3075-0173-BUILDING-S.jpg"
    },
    {
      "id": "Α-3075-0369Α",
      "lat": 34.68668,
      "lon": 33.02782,
      "type": "ΔΗΜΟΣΙΟ",
      "capacity": "70",
      "signNumber": "0369",
      "address": "ΟΝΗΣΙΛΟΥ 13, Λ/ΣΟΣ( ΑΠ. ΠΕΤΡΟΥ&ΠΑΥΛΟΥ)",
      "district": "ΕΠΑΡΧΙΑ ΛΕΜΕΣΟΥ",
      "subDistrict": "ΑΝΑΤΟΛΙΚΗΣ ΛΕΜΕΣΟΥ",
      "image": "Α-3075-0369Α-BUILDING-S.jpg"
    },
    {
      "id": "Α-3075-0368Α",
      "lat": 34.686944,
      "lon": 33.027653,
      "type": "ΔΗΜΟΣΙΟ",
      "capacity": "70",
      "signNumber": "0368",
      "address": "ΛΕΚΟΡΠΟΥΖΙΕ 16, Λ/ΣΟΣ( ΑΠ. ΠΕΤΡΟΥ&ΠΑΥΛΟΥ)",
      "district": "ΕΠΑΡΧΙΑ ΛΕΜΕΣΟΥ",
      "subDistrict": "ΑΝΑΤΟΛΙΚΗΣ ΛΕΜΕΣΟΥ",
      "image": "Α-3075-0368Α-BUILDING-S.jpg"
    },
    {
      "id": "Α-3075-0368Β",
      "lat": 34.686944,
      "lon": 33.027653,
      "type": "ΔΗΜΟΣΙΟ",
      "capacity": "50",
      "signNumber": "0368",
      "address": "ΛΕΚΟΡΠΟΥΖΙΕ 16, Λ/ΣΟΣ( ΑΠ. ΠΕΤΡΟΥ&ΠΑΥΛΟΥ)",
      "district": "ΕΠΑΡΧΙΑ ΛΕΜΕΣΟΥ",
      "subDistrict": "ΑΝΑΤΟΛΙΚΗΣ ΛΕΜΕΣΟΥ",
      "image": "Α-3075-0368Β-BUILDING-S.jpg"
    },
    {
      "id": "Α-3075-0369Β",
      "lat": 34.68668,
      "lon": 33.02782,
      "type": "ΔΗΜΟΣΙΟ",
      "capacity": "40",
      "signNumber": "0369",
      "address": "ΟΝΗΣΙΛΟΥ 13, Λ/ΣΟΣ( ΑΠ. ΠΕΤΡΟΥ&ΠΑΥΛΟΥ)",
      "district": "ΕΠΑΡΧΙΑ ΛΕΜΕΣΟΥ",
      "subDistrict": "ΑΝΑΤΟΛΙΚΗΣ ΛΕΜΕΣΟΥ",
      "image": "Α-3075-0369Β-BUILDING-S.jpg"
    },
    {
      "id": "Α-3075-0027",
      "lat": 34.68885,
      "lon": 33.03192,
      "type": "ΔΗΜΟΣΙΟ",
      "capacity": "150",
      "signNumber": "0027",
      "address": "ΠΟΛΥΔΕΥΚΗ & ΠΕΤΡΟΥ ΤΣΙΡΟΥ ΧΡΥΣΟΣΤΟΜΟΣ ΤΑΟΥΕΡ,Λ/ΣΟΣ( ΑΠ. ΠΕΤΡΟΥ&ΠΑΥΛΟΥ)",
      "district": "ΕΠΑΡΧΙΑ ΛΕΜΕΣΟΥ",
      "subDistrict": "ΑΝΑΤΟΛΙΚΗΣ ΛΕΜΕΣΟΥ",
      "image": "Α-3075-0027-BUILDING-S.jpg"
    },
    {
      "id": "Α-3075-0028",
      "lat": 34.689005,
      "lon": 33.02446,
      "type": "ΔΗΜΟΣΙΟ",
      "capacity": "180",
      "signNumber": "0028",
      "address": "ΒΑΣΙΛΕΩΣ ΚΩΝΣΤΑΝΤΙΝΟΥ 54 ΕRIMOUDIS COURT,Λ/ΣΟΣ( ΑΠ. ΠΕΤΡΟΥ&ΠΑΥΛΟΥ)",
      "district": "ΕΠΑΡΧΙΑ ΛΕΜΕΣΟΥ",
      "subDistrict": "ΑΝΑΤΟΛΙΚΗΣ ΛΕΜΕΣΟΥ",
      "image": "Α-3075-0028-BUILDING-S.jpg"
    },
    {
      "id": "Α-3075-0210",
      "lat": 34.6868,
      "lon": 33.031165,
      "type": "ΔΗΜΟΣΙΟ",
      "capacity": "100",
      "signNumber": "0210",
      "address": "ΠΑΝΑΓΗ ΛΑΠΑ 29, Λ/ΣΟΣ( ΑΠ. ΠΕΤΡΟΥ&ΠΑΥΛΟΥ)",
      "district": "ΕΠΑΡΧΙΑ ΛΕΜΕΣΟΥ",
      "subDistrict": "ΑΝΑΤΟΛΙΚΗΣ ΛΕΜΕΣΟΥ",
      "image": "Α-3075-0210-BUILDING-S.jpg"
    },
    {
      "id": "Α-3075-0410",
      "lat": 34.685311,
      "lon": 33.032295,
      "type": "ΔΗΜΟΣΙΟ",
      "capacity": "200",
      "signNumber": "0410",
      "address": "ΛΕΩΦ. ΑΡΧ. ΜΑΚΑΡΙΟΥ Γ & ΠΕΤΡΟΥ ΤΣΙΡΟΥ,ΜΑΡΦΙΝ ΛΑΙΚΗ ΜΑΡΦΙΝ ΛΑΙΚΗ ΤΡΑΠΕΖΑ,Λ/ΣΟΣ( ΑΠ. ΠΕΤΡΟΥ&ΠΑΥΛΟΥ)",
      "district": "ΕΠΑΡΧΙΑ ΛΕΜΕΣΟΥ",
      "subDistrict": "ΑΝΑΤΟΛΙΚΗΣ ΛΕΜΕΣΟΥ",
      "image": "Α-3075-0410-BUILDING-S.jpg"
    },
    {
      "id": "Α-3075-0411",
      "lat": 34.685311,
      "lon": 33.032295,
      "type": "ΔΗΜΟΣΙΟ",
      "capacity": "200",
      "signNumber": "0411",
      "address": "ΛΕΩΦ. ΑΡΧ. ΜΑΚΑΡΙΟΥ Γ & ΠΕΤΡΟΥ ΤΣΙΡΟΥ,ΜΑΡΦΙΝ ΛΑΙΚΗ ΜΑΡΦΙΝ ΛΑΙΚΗ ΤΡΑΠΕΖΑ,Λ/ΣΟΣ( ΑΠ. ΠΕΤΡΟΥ&ΠΑΥΛΟΥ)",
      "district": "ΕΠΑΡΧΙΑ ΛΕΜΕΣΟΥ",
      "subDistrict": "ΑΝΑΤΟΛΙΚΗΣ ΛΕΜΕΣΟΥ",
      "image": "Α-3075-0411-BUILDING-S.jpg"
    },
    {
      "id": "Α-3075-0417",
      "lat": 34.685362,
      "lon": 33.031575,
      "type": "ΔΗΜΟΣΙΟ",
      "capacity": "100",
      "signNumber": "0417",
      "address": "ΣΙΣΥΦΟΥ 29, Λ/ΣΟΣ( ΑΠ. ΠΕΤΡΟΥ&ΠΑΥΛΟΥ)",
      "district": "ΕΠΑΡΧΙΑ ΛΕΜΕΣΟΥ",
      "subDistrict": "ΑΝΑΤΟΛΙΚΗΣ ΛΕΜΕΣΟΥ",
      "image": "Α-3075-0417-BUILDING-S.jpg"
    },
    {
      "id": "Α-3075-0419Α",
      "lat": 34.6871,
      "lon": 33.02554,
      "type": "ΔΗΜΟΣΙΟ",
      "capacity": "60",
      "signNumber": "0419",
      "address": "ΒΑΣΙΛΕΩΣ ΚΩΝΣΤΑΝΤΙΝΟΥ 40, Λ/ΣΟΣ( ΑΠ. ΠΕΤΡΟΥ&ΠΑΥΛΟΥ)",
      "district": "ΕΠΑΡΧΙΑ ΛΕΜΕΣΟΥ",
      "subDistrict": "ΑΝΑΤΟΛΙΚΗΣ ΛΕΜΕΣΟΥ",
      "image": "Α-3075-0419Α-BUILDING-S.jpg"
    },
    {
      "id": "Α-3075-0419Β",
      "lat": 34.6871,
      "lon": 33.02554,
      "type": "ΔΗΜΟΣΙΟ",
      "capacity": "10",
      "signNumber": "0419",
      "address": "ΒΑΣΙΛΕΩΣ ΚΩΝΣΤΑΝΤΙΝΟΥ 40, Λ/ΣΟΣ( ΑΠ. ΠΕΤΡΟΥ&ΠΑΥΛΟΥ)",
      "district": "ΕΠΑΡΧΙΑ ΛΕΜΕΣΟΥ",
      "subDistrict": "ΑΝΑΤΟΛΙΚΗΣ ΛΕΜΕΣΟΥ",
      "image": "Α-3075-0419Β-BUILDING-S.jpg"
    },
    {
      "id": "Α-3075-0453Α",
      "lat": 34.687,
      "lon": 33.02524,
      "type": "ΔΗΜΟΣΙΟ",
      "capacity": "200",
      "signNumber": "0453",
      "address": "ΒΑΣΙΛΕΩΣ ΚΩΝΣΤΑΝΤΙΝΟΥ 27, Λ/ΣΟΣ( ΑΠ. ΠΕΤΡΟΥ&ΠΑΥΛΟΥ)",
      "district": "ΕΠΑΡΧΙΑ ΛΕΜΕΣΟΥ",
      "subDistrict": "ΑΝΑΤΟΛΙΚΗΣ ΛΕΜΕΣΟΥ",
      "image": "Α-3075-0453Α-BUILDING-S.jpg"
    },
    {
      "id": "Α-3075-0453Β",
      "lat": 34.687,
      "lon": 33.02524,
      "type": "ΔΗΜΟΣΙΟ",
      "capacity": "200",
      "signNumber": "0453",
      "address": "ΒΑΣΙΛΕΩΣ ΚΩΝΣΤΑΝΤΙΝΟΥ 27, Λ/ΣΟΣ( ΑΠ. ΠΕΤΡΟΥ&ΠΑΥΛΟΥ)",
      "district": "ΕΠΑΡΧΙΑ ΛΕΜΕΣΟΥ",
      "subDistrict": "ΑΝΑΤΟΛΙΚΗΣ ΛΕΜΕΣΟΥ",
      "image": "Α-3075-0453Β-BUILDING-S.jpg"
    },
    {
      "id": "Α-3075-0454",
      "lat": 34.68747,
      "lon": 33.02504,
      "type": "ΔΗΜΟΣΙΟ",
      "capacity": "200",
      "signNumber": "0454",
      "address": "ΒΑΣΙΛΕΩΣ ΚΩΝΣΤΑΝΤΙΝΟΥ 29, Λ/ΣΟΣ( ΑΠ. ΠΕΤΡΟΥ&ΠΑΥΛΟΥ)",
      "district": "ΕΠΑΡΧΙΑ ΛΕΜΕΣΟΥ",
      "subDistrict": "ΑΝΑΤΟΛΙΚΗΣ ΛΕΜΕΣΟΥ",
      "image": "Α-3075-0454-BUILDING-S.jpg"
    },
    {
      "id": "Α-3076-0175",
      "lat": 34.691227,
      "lon": 33.023549,
      "type": "ΔΗΜΟΣΙΟ",
      "capacity": "200",
      "signNumber": "0175",
      "address": "ΒΑΣΙΛΕΩΣ ΚΩΝΣΤΑΝΤΙΝΟΥ 76 ΚΛΙΝΙΚΗ ΑΓΙΟΙ ΑΝΑΡΓΥΡΟΙ,Λ/ΣΟΣ (ΑΓ. ΓΕΩΡΓΙΟΣ ΧΑΒ.)",
      "district": "ΕΠΑΡΧΙΑ ΛΕΜΕΣΟΥ",
      "subDistrict": "ΑΝΑΤΟΛΙΚΗΣ ΛΕΜΕΣΟΥ",
      "image": "Α-3076-0175-BUILDING-S.jpg"
    },
    {
      "id": "Α-3077-0036",
      "lat": 34.697176,
      "lon": 33.028982,
      "type": "ΔΗΜΟΣΙΟ",
      "capacity": "200",
      "signNumber": "0036",
      "address": "ΙΩΑΝΝΗ ΔΑΜΑΣΚΗΝΟΥ 1 ΕΛΕΝΗ ΚΩΡΤ,Λ/ΣΟΣ( ΑΠ. ΠΕΤΡΟΥ&ΠΑΥΛΟΥ)",
      "district": "ΕΠΑΡΧΙΑ ΛΕΜΕΣΟΥ",
      "subDistrict": "ΑΝΑΤΟΛΙΚΗΣ ΛΕΜΕΣΟΥ",
      "image": "Α-3077-0036-BUILDING-S.jpg"
    },
    {
      "id": "Α-3077-0212",
      "lat": 34.696682,
      "lon": 33.031967,
      "type": "ΔΗΜΟΣΙΟ",
      "capacity": "130",
      "signNumber": "0212",
      "address": "ΛΕΩΦ. ΣΠΥΡΟΥ ΚΥΠΡΙΑΝΟΥ & ΣΠΟΡΑΔΩΝ, Λ/ΣΟΣ (ΚΑΨΑΛΟΣ)",
      "district": "ΕΠΑΡΧΙΑ ΛΕΜΕΣΟΥ",
      "subDistrict": "ΑΝΑΤΟΛΙΚΗΣ ΛΕΜΕΣΟΥ",
      "image": "Α-3077-0212-BUILDING-S.jpg"
    },
    {
      "id": "Α-3080-0029",
      "lat": 34.70232,
      "lon": 33.02625,
      "type": "ΔΗΜΟΣΙΟ",
      "capacity": "162",
      "signNumber": "0029",
      "address": "ΣΤΕΛΙΟΥ ΚΥΡΙΑΚΙΔΗ 11Α ΣΑΞΕΜΟ ΚΩΡΤ 7,Λ/ΣΟΣ( ΑΠ. ΠΕΤΡΟΥ&ΠΑΥΛΟΥ)",
      "district": "ΕΠΑΡΧΙΑ ΛΕΜΕΣΟΥ",
      "subDistrict": "ΑΝΑΤΟΛΙΚΗΣ ΛΕΜΕΣΟΥ",
      "image": "Α-3080-0029-BUILDING-S.jpg"
    },
    {
      "id": "Α-3080-0180",
      "lat": 34.6968,
      "lon": 33.0207,
      "type": "ΔΗΜΟΣΙΟ",
      "capacity": "90",
      "signNumber": "0180",
      "address": "ΤΙΤΑΝΩΝ 22Α, Λ/ΣΟΣ( ΑΠ. ΠΕΤΡΟΥ&ΠΑΥΛΟΥ)",
      "district": "ΕΠΑΡΧΙΑ ΛΕΜΕΣΟΥ",
      "subDistrict": "ΑΝΑΤΟΛΙΚΗΣ ΛΕΜΕΣΟΥ",
      "image": "Α-3080-0180-BUILDING-S.jpg"
    },
    {
      "id": "Α-3080-0214",
      "lat": 34.69545,
      "lon": 33.01824,
      "type": "ΔΗΜΟΣΙΟ",
      "capacity": "55",
      "signNumber": "0214",
      "address": "ΙΩΑΝΝΗ ΣΤΥΛΙΑΝΟΥ 5, Λ/ΣΟΣ (ΑΓ. ΓΕΩΡΓΙΟΣ ΧΑΒ.)",
      "district": "ΕΠΑΡΧΙΑ ΛΕΜΕΣΟΥ",
      "subDistrict": "ΑΝΑΤΟΛΙΚΗΣ ΛΕΜΕΣΟΥ",
      "image": "Α-3080-0214-BUILDING-S.jpg"
    },
    {
      "id": "Α-3080-0221",
      "lat": 34.702456,
      "lon": 33.026521,
      "type": "ΔΗΜΟΣΙΟ",
      "capacity": "200",
      "signNumber": "0221",
      "address": "ΣΤΕΛΙΟΥ ΚΥΡΙΑΚΙΔΗ 7 CSM HOUSE,Λ/ΣΟΣ( ΑΠ. ΠΕΤΡΟΥ&ΠΑΥΛΟΥ)",
      "district": "ΕΠΑΡΧΙΑ ΛΕΜΕΣΟΥ",
      "subDistrict": "ΑΝΑΤΟΛΙΚΗΣ ΛΕΜΕΣΟΥ",
      "image": "Α-3080-0221-BUILDING-S.jpg"
    },
    {
      "id": "Α-3080-0427",
      "lat": 34.69914,
      "lon": 33.02103,
      "type": "ΔΗΜΟΣΙΟ",
      "capacity": "100",
      "signNumber": "0427",
      "address": "ΒΑΣΙΛΕΩΣ ΚΩΝΣΤΑΝΤΙΝΟΥ 152 TWINS TSIRIO TOWER,Λ/ΣΟΣ( ΑΠ. ΠΕΤΡΟΥ&ΠΑΥΛΟΥ)",
      "district": "ΕΠΑΡΧΙΑ ΛΕΜΕΣΟΥ",
      "subDistrict": "ΑΝΑΤΟΛΙΚΗΣ ΛΕΜΕΣΟΥ",
      "image": "Α-3080-0427-BUILDING-S.jpg"
    },
    {
      "id": "Α-3081-0224",
      "lat": 34.69734,
      "lon": 33.02585,
      "type": "ΔΗΜΟΣΙΟ",
      "capacity": "40",
      "signNumber": "0224",
      "address": "ΔΗΜΗΤΡΗ ΨΑΘΑ 30, Λ/ΣΟΣ( ΑΠ. ΠΕΤΡΟΥ&ΠΑΥΛΟΥ)",
      "district": "ΕΠΑΡΧΙΑ ΛΕΜΕΣΟΥ",
      "subDistrict": "ΑΝΑΤΟΛΙΚΗΣ ΛΕΜΕΣΟΥ",
      "image": "Α-3081-0224-BUILDING-S.jpg"
    },
    {
      "id": "Α-3082-0296",
      "lat": 34.699314,
      "lon": 33.031152,
      "type": "ΔΗΜΟΣΙΟ",
      "capacity": "150",
      "signNumber": "0296",
      "address": "ΑΓ. ΦΥΛΑΞΕΩΣ 179 KANSON HOUSE,Λ/ΣΟΣ( ΑΠ. ΠΕΤΡΟΥ&ΠΑΥΛΟΥ)",
      "district": "ΕΠΑΡΧΙΑ ΛΕΜΕΣΟΥ",
      "subDistrict": "ΑΝΑΤΟΛΙΚΗΣ ΛΕΜΕΣΟΥ",
      "image": "Α-3082-0296-BUILDING-S.jpg"
    },
    {
      "id": "Α-3082-0017",
      "lat": 34.69982,
      "lon": 33.03285,
      "type": "ΔΗΜΟΣΙΟ",
      "capacity": "100",
      "signNumber": "0017",
      "address": "ΙΕΡΟΥ ΛΟΧΟΥ 8Β, Λ/ΣΟΣ (ΚΑΨΑΛΟΣ)",
      "district": "ΕΠΑΡΧΙΑ ΛΕΜΕΣΟΥ",
      "subDistrict": "ΑΝΑΤΟΛΙΚΗΣ ΛΕΜΕΣΟΥ",
      "image": "Α-3082-0017-BUILDING-S.jpg"
    },
    {
      "id": "Α-3083-0034",
      "lat": 34.697144,
      "lon": 33.03281,
      "type": "ΔΗΜΟΣΙΟ",
      "capacity": "150",
      "signNumber": "0034",
      "address": "ΑΓ. ΦΥΛΑΞΕΩΣ 155, Λ/ΣΟΣ (ΚΑΨΑΛΟΣ)",
      "district": "ΕΠΑΡΧΙΑ ΛΕΜΕΣΟΥ",
      "subDistrict": "ΑΝΑΤΟΛΙΚΗΣ ΛΕΜΕΣΟΥ",
      "image": "Α-3083-0034-BUILDING-S.jpg"
    },
    {
      "id": "Α-3083-0037Α",
      "lat": 34.69412,
      "lon": 33.03459,
      "type": "ΔΗΜΟΣΙΟ",
      "capacity": "200",
      "signNumber": "0037",
      "address": "ΑΓ. ΦΥΛΑΞΕΩΣ 129-131, Λ/ΣΟΣ (ΚΑΨΑΛΟΣ)",
      "district": "ΕΠΑΡΧΙΑ ΛΕΜΕΣΟΥ",
      "subDistrict": "ΑΝΑΤΟΛΙΚΗΣ ΛΕΜΕΣΟΥ",
      "image": "Α-3083-0037Α-BUILDING-S.jpg"
    },
    {
      "id": "Α-3083-0037Β",
      "lat": 34.69412,
      "lon": 33.03459,
      "type": "ΔΗΜΟΣΙΟ",
      "capacity": "100",
      "signNumber": "0037",
      "address": "ΑΓ. ΦΥΛΑΞΕΩΣ 129-131, Λ/ΣΟΣ (ΚΑΨΑΛΟΣ)",
      "district": "ΕΠΑΡΧΙΑ ΛΕΜΕΣΟΥ",
      "subDistrict": "ΑΝΑΤΟΛΙΚΗΣ ΛΕΜΕΣΟΥ",
      "image": "Α-3083-0037Β-BUILDING-S.jpg"
    },
    {
      "id": "Α-3083-0291",
      "lat": 34.702732,
      "lon": 33.036791,
      "type": "ΔΗΜΟΣΙΟ",
      "capacity": "120",
      "signNumber": "0291",
      "address": "ΠΡΙΓΚΗΠΙΣΣΗΣ ΑΛΕΞΙΑΣ 49, Λ/ΣΟΣ (ΚΑΨΑΛΟΣ)",
      "district": "ΕΠΑΡΧΙΑ ΛΕΜΕΣΟΥ",
      "subDistrict": "ΑΝΑΤΟΛΙΚΗΣ ΛΕΜΕΣΟΥ",
      "image": "Α-3083-0291-BUILDING-S.jpg"
    },
    {
      "id": "Α-3083-0281",
      "lat": 34.69666,
      "lon": 33.03359,
      "type": "ΔΗΜΟΣΙΟ",
      "capacity": "35",
      "signNumber": "0281",
      "address": "ΑΓ. ΦΥΛΑΞΕΩΣ 180, Λ/ΣΟΣ (ΚΑΨΑΛΟΣ)",
      "district": "ΕΠΑΡΧΙΑ ΛΕΜΕΣΟΥ",
      "subDistrict": "ΑΝΑΤΟΛΙΚΗΣ ΛΕΜΕΣΟΥ",
      "image": "Α-3083-0281-BUILDING-S.jpg"
    },
    {
      "id": "Α-3083-0012",
      "lat": 34.69767,
      "lon": 33.03627,
      "type": "ΔΗΜΟΣΙΟ",
      "capacity": "140",
      "signNumber": "0012",
      "address": "ΛΕΩΦ. ΣΠΥΡΟΥ ΚΥΠΡΙΑΝΟΥ 145, Λ/ΣΟΣ (ΚΑΨΑΛΟΣ)",
      "district": "ΕΠΑΡΧΙΑ ΛΕΜΕΣΟΥ",
      "subDistrict": "ΑΝΑΤΟΛΙΚΗΣ ΛΕΜΕΣΟΥ",
      "image": "Α-3083-0012-BUILDING-S.jpg"
    },
    {
      "id": "Α-3083-0018",
      "lat": 34.6983,
      "lon": 33.03252,
      "type": "ΔΗΜΟΣΙΟ",
      "capacity": "200",
      "signNumber": "0018",
      "address": "ΑΓ. ΦΥΛΑΞΕΩΣ 194 ΠΑΝΔΩΡΑ ΚΩΡΤ,Λ/ΣΟΣ (ΚΑΨΑΛΟΣ)",
      "district": "ΕΠΑΡΧΙΑ ΛΕΜΕΣΟΥ",
      "subDistrict": "ΑΝΑΤΟΛΙΚΗΣ ΛΕΜΕΣΟΥ",
      "image": "Α-3083-0018-BUILDING-S.jpg"
    },
    {
      "id": "Α-3083-0021",
      "lat": 34.695553,
      "lon": 33.03412,
      "type": "ΔΗΜΟΣΙΟ",
      "capacity": "200",
      "signNumber": "0021",
      "address": "ΑΓ. ΦΥΛΑΞΕΩΣ 168 ΑΛΦΑ ΤΡΑΠΕΖΑ,Λ/ΣΟΣ (ΚΑΨΑΛΟΣ)",
      "district": "ΕΠΑΡΧΙΑ ΛΕΜΕΣΟΥ",
      "subDistrict": "ΑΝΑΤΟΛΙΚΗΣ ΛΕΜΕΣΟΥ",
      "image": "Α-3083-0021-BUILDING-S.jpg"
    },
    {
      "id": "Α-3083-0408",
      "lat": 34.69708,
      "lon": 33.0338,
      "type": "ΔΗΜΟΣΙΟ",
      "capacity": "130",
      "signNumber": "0408",
      "address": "ΑΓ. ΦΥΛΑΞΕΩΣ & ΛΕΩΦ. ΣΠΥΡΟΥ ΚΥΠΡΙΑΝΟΥ, Λ/ΣΟΣ (ΚΑΨΑΛΟΣ)",
      "district": "ΕΠΑΡΧΙΑ ΛΕΜΕΣΟΥ",
      "subDistrict": "ΑΝΑΤΟΛΙΚΗΣ ΛΕΜΕΣΟΥ",
      "image": "Α-3083-0408-BUILDING-S.jpg"
    },
    {
      "id": "Α-3083-0409",
      "lat": 34.69708,
      "lon": 33.0338,
      "type": "ΔΗΜΟΣΙΟ",
      "capacity": "130",
      "signNumber": "0409",
      "address": "ΑΓ. ΦΥΛΑΞΕΩΣ & ΛΕΩΦ. ΣΠΥΡΟΥ ΚΥΠΡΙΑΝΟΥ, Λ/ΣΟΣ (ΚΑΨΑΛΟΣ)",
      "district": "ΕΠΑΡΧΙΑ ΛΕΜΕΣΟΥ",
      "subDistrict": "ΑΝΑΤΟΛΙΚΗΣ ΛΕΜΕΣΟΥ",
      "image": "Α-3083-0409-BUILDING-S.jpg"
    },
    {
      "id": "Α-3085-0294",
      "lat": 34.68781,
      "lon": 33.03311,
      "type": "ΔΗΜΟΣΙΟ",
      "capacity": "100",
      "signNumber": "0294",
      "address": "ΙΩΑΝΝΗ ΠΟΛΕΜΗ 23, Λ/ΣΟΣ( ΑΠ. ΠΕΤΡΟΥ&ΠΑΥΛΟΥ)",
      "district": "ΕΠΑΡΧΙΑ ΛΕΜΕΣΟΥ",
      "subDistrict": "ΑΝΑΤΟΛΙΚΗΣ ΛΕΜΕΣΟΥ",
      "image": "Α-3085-0294-BUILDING-S.jpg"
    },
    {
      "id": "Α-3085-0040",
      "lat": 34.68607,
      "lon": 33.03279,
      "type": "ΔΗΜΟΣΙΟ",
      "capacity": "100",
      "signNumber": "0040",
      "address": "ΚΩΣΤΑ ΟΥΡΑΝΗ 5, Λ/ΣΟΣ( ΑΠ. ΠΕΤΡΟΥ&ΠΑΥΛΟΥ)",
      "district": "ΕΠΑΡΧΙΑ ΛΕΜΕΣΟΥ",
      "subDistrict": "ΑΝΑΤΟΛΙΚΗΣ ΛΕΜΕΣΟΥ",
      "image": "Α-3085-0040-BUILDING-S.jpg"
    },
    {
      "id": "Α-3086-0035",
      "lat": 34.696585,
      "lon": 33.03287,
      "type": "ΔΗΜΟΣΙΟ",
      "capacity": "200",
      "signNumber": "0035",
      "address": "ΑΓ. ΦΥΛΑΞΕΩΣ & ΛΕΩΦ. ΣΠΥΡΟΥ ΚΥΠΡΙΑΝΟΥ CTL EUROCOLLEGE,Λ/ΣΟΣ (ΚΑΨΑΛΟΣ)",
      "district": "ΕΠΑΡΧΙΑ ΛΕΜΕΣΟΥ",
      "subDistrict": "ΑΝΑΤΟΛΙΚΗΣ ΛΕΜΕΣΟΥ",
      "image": "Α-3086-0035-BUILDING-S.jpg"
    },
    {
      "id": "Α-3087-0301",
      "lat": 34.693597,
      "lon": 33.034696,
      "type": "ΔΗΜΟΣΙΟ",
      "capacity": "120",
      "signNumber": "0301",
      "address": "ΑΙΓΥΠΤΟΥ 1 & ΑΓ. ΦΥΛΑΞΕΩΣ, Λ/ΣΟΣ (ΚΑΨΑΛΟΣ)",
      "district": "ΕΠΑΡΧΙΑ ΛΕΜΕΣΟΥ",
      "subDistrict": "ΑΝΑΤΟΛΙΚΗΣ ΛΕΜΕΣΟΥ",
      "image": "Α-3087-0301-BUILDING-S.jpg"
    },
    {
      "id": "Α-3087-0305",
      "lat": 34.69074,
      "lon": 33.03591,
      "type": "ΔΗΜΟΣΙΟ",
      "capacity": "100",
      "signNumber": "0305",
      "address": "ΑΓ. ΦΥΛΑΞΕΩΣ 95, Λ/ΣΟΣ (ΚΑΨΑΛΟΣ)",
      "district": "ΕΠΑΡΧΙΑ ΛΕΜΕΣΟΥ",
      "subDistrict": "ΑΝΑΤΟΛΙΚΗΣ ΛΕΜΕΣΟΥ",
      "image": "Α-3087-0305-BUILDING-S.jpg"
    },
    {
      "id": "Α-3087-0038",
      "lat": 34.69173,
      "lon": 33.03559,
      "type": "ΔΗΜΟΣΙΟ",
      "capacity": "105",
      "signNumber": "0038",
      "address": "ΑΓ. ΦΥΛΑΞΕΩΣ 136 ΑΝΝΙΣΑ ΚΩΡΤ,Λ/ΣΟΣ (ΚΑΨΑΛΟΣ)",
      "district": "ΕΠΑΡΧΙΑ ΛΕΜΕΣΟΥ",
      "subDistrict": "ΑΝΑΤΟΛΙΚΗΣ ΛΕΜΕΣΟΥ",
      "image": "Α-3087-0038-BUILDING-S.jpg"
    },
    {
      "id": "Α-3087-0039",
      "lat": 34.69191,
      "lon": 33.03546,
      "type": "ΔΗΜΟΣΙΟ",
      "capacity": "156",
      "signNumber": "0039",
      "address": "ΑΓ. ΦΥΛΑΞΕΩΣ 136 ΜΑΡΙΕΛΛΑ ΚΩΡΤ,Λ/ΣΟΣ (ΚΑΨΑΛΟΣ)",
      "district": "ΕΠΑΡΧΙΑ ΛΕΜΕΣΟΥ",
      "subDistrict": "ΑΝΑΤΟΛΙΚΗΣ ΛΕΜΕΣΟΥ",
      "image": "Α-3087-0039-BUILDING-S.jpg"
    },
    {
      "id": "Α-3087-0019",
      "lat": 34.69373,
      "lon": 33.03457,
      "type": "ΔΗΜΟΣΙΟ",
      "capacity": "100",
      "signNumber": "0019",
      "address": "ΑΓ. ΦΥΛΑΞΕΩΣ 154, Λ/ΣΟΣ (ΚΑΨΑΛΟΣ)",
      "district": "ΕΠΑΡΧΙΑ ΛΕΜΕΣΟΥ",
      "subDistrict": "ΑΝΑΤΟΛΙΚΗΣ ΛΕΜΕΣΟΥ",
      "image": "Α-3087-0019-BUILDING-S.jpg"
    },
    {
      "id": "Α-3087-0020",
      "lat": 34.688987,
      "lon": 33.037285,
      "type": "ΔΗΜΟΣΙΟ",
      "capacity": "200",
      "signNumber": "0020",
      "address": "ΚΡΗΤΗΣ 1, ΑΓ.ΦΥΛΑΞΕΩΣ + ΑΝΑΞΑΡΧΟΥ,CONSTANCIA COURT CONSTANCIA COURT,Λ/ΣΟΣ (ΚΑΨΑΛΟΣ)",
      "district": "ΕΠΑΡΧΙΑ ΛΕΜΕΣΟΥ",
      "subDistrict": "ΑΝΑΤΟΛΙΚΗΣ ΛΕΜΕΣΟΥ",
      "image": "Α-3087-0020-BUILDING-S.jpg"
    },
    {
      "id": "Α-3087-0220",
      "lat": 34.691408,
      "lon": 33.039,
      "type": "ΔΗΜΟΣΙΟ",
      "capacity": "114",
      "signNumber": "0220",
      "address": "ΚΡΗΤΗΣ 36, Λ/ΣΟΣ (ΚΑΨΑΛΟΣ)",
      "district": "ΕΠΑΡΧΙΑ ΛΕΜΕΣΟΥ",
      "subDistrict": "ΑΝΑΤΟΛΙΚΗΣ ΛΕΜΕΣΟΥ",
      "image": "Α-3087-0220-BUILDING-S.jpg"
    },
    {
      "id": "Α-3087-0431",
      "lat": 34.6888,
      "lon": 33.03662,
      "type": "ΔΗΜΟΣΙΟ",
      "capacity": "100",
      "signNumber": "0431",
      "address": "ΑΓ. ΦΥΛΑΞΕΩΣ 81, Λ/ΣΟΣ (ΚΑΨΑΛΟΣ)",
      "district": "ΕΠΑΡΧΙΑ ΛΕΜΕΣΟΥ",
      "subDistrict": "ΑΝΑΤΟΛΙΚΗΣ ΛΕΜΕΣΟΥ",
      "image": "Α-3087-0431-BUILDING-S.jpg"
    },
    {
      "id": "Α-3087-0437",
      "lat": 34.694072,
      "lon": 33.037088,
      "type": "ΔΗΜΟΣΙΟ",
      "capacity": "35",
      "signNumber": "0437",
      "address": "ΑΙΓΥΠΤΟΥ 19Α, Λ/ΣΟΣ (ΚΑΨΑΛΟΣ)",
      "district": "ΕΠΑΡΧΙΑ ΛΕΜΕΣΟΥ",
      "subDistrict": "ΑΝΑΤΟΛΙΚΗΣ ΛΕΜΕΣΟΥ",
      "image": "Α-3087-0437-BUILDING-S.jpg"
    },
    {
      "id": "Α-3090-0002",
      "lat": 34.688743,
      "lon": 33.044477,
      "type": "ΔΗΜΟΣΙΟ",
      "capacity": "100",
      "signNumber": "0002",
      "address": "ΑΓ. ΖΩΝΗΣ 50 ARIANTHI COURT,Λ/ΣΟΣ  (ΑΓ. ΖΩΝΗ)",
      "district": "ΕΠΑΡΧΙΑ ΛΕΜΕΣΟΥ",
      "subDistrict": "ΑΝΑΤΟΛΙΚΗΣ ΛΕΜΕΣΟΥ",
      "image": "Α-3090-0002-BUILDING-S.jpg"
    },
    {
      "id": "Α-3090-0191",
      "lat": 34.69081,
      "lon": 33.043257,
      "type": "ΔΗΜΟΣΙΟ",
      "capacity": "80",
      "signNumber": "0191",
      "address": "ΜΟΥΣΑΙΟΥ 16, Λ/ΣΟΣ (ΑΓ. ΝΕΚΤΑΡΙΟΣ)",
      "district": "ΕΠΑΡΧΙΑ ΛΕΜΕΣΟΥ",
      "subDistrict": "ΑΝΑΤΟΛΙΚΗΣ ΛΕΜΕΣΟΥ",
      "image": "Α-3090-0191-BUILDING-S.jpg"
    },
    {
      "id": "Α-3090-0442",
      "lat": 34.68866,
      "lon": 33.043292,
      "type": "ΔΗΜΟΣΙΟ",
      "capacity": "200",
      "signNumber": "0442",
      "address": "ΔΗΜΗΤΡΗ ΛΙΠΕΡΤΗ 12 & ΠΛΑΤΩΝΟΣ ΑΜΕΡΙΚΑΝΟΣ ΚΩΡΤ,Λ/ΣΟΣ (ΑΓ. ΝΕΚΤΑΡΙΟΣ)",
      "district": "ΕΠΑΡΧΙΑ ΛΕΜΕΣΟΥ",
      "subDistrict": "ΑΝΑΤΟΛΙΚΗΣ ΛΕΜΕΣΟΥ",
      "image": "Α-3090-0442-BUILDING-S.jpg"
    },
    {
      "id": "Α-3090-0449",
      "lat": 34.69217,
      "lon": 33.041323,
      "type": "ΔΗΜΟΣΙΟ",
      "capacity": "130",
      "signNumber": "0449",
      "address": "ΠΛΑΤΩΝΟΣ 52 ΠΝΕΥΜΑΤΙΚΟ ΚΕΝΤΡΟ ΕΚΚΛΗΣΙΑΣ ΑΓ. ΝΕΚΤΑΡΙΟΥ,Λ/ΣΟΣ (ΑΓ. ΝΕΚΤΑΡΙΟΣ)",
      "district": "ΕΠΑΡΧΙΑ ΛΕΜΕΣΟΥ",
      "subDistrict": "ΑΝΑΤΟΛΙΚΗΣ ΛΕΜΕΣΟΥ",
      "image": "Α-3090-0449-BUILDING-S.jpg"
    },
    {
      "id": "Α-3091-0003Α",
      "lat": 34.69412,
      "lon": 33.050965,
      "type": "ΔΗΜΟΣΙΟ",
      "capacity": "200",
      "signNumber": "0003",
      "address": "ΟΜΗΡΟΥ 61 & ΔΑΒΑΚΗ ΜΕΓΑΡΟ ΤΖΟΑΝΝΑ,Λ/ΣΟΣ (ΑΓ. ΝΙΚΟΛΑΟΣ)",
      "district": "ΕΠΑΡΧΙΑ ΛΕΜΕΣΟΥ",
      "subDistrict": "ΑΝΑΤΟΛΙΚΗΣ ΛΕΜΕΣΟΥ",
      "image": "Α-3091-0003Α-BUILDING-S.jpg"
    },
    {
      "id": "Α-3091-0003Β",
      "lat": 34.69412,
      "lon": 33.050965,
      "type": "ΔΗΜΟΣΙΟ",
      "capacity": "200",
      "signNumber": "0003",
      "address": "ΟΜΗΡΟΥ 61 & ΔΑΒΑΚΗ ΜΕΓΑΡΟ ΤΖΟΑΝΝΑ,Λ/ΣΟΣ (ΑΓ. ΝΙΚΟΛΑΟΣ)",
      "district": "ΕΠΑΡΧΙΑ ΛΕΜΕΣΟΥ",
      "subDistrict": "ΑΝΑΤΟΛΙΚΗΣ ΛΕΜΕΣΟΥ",
      "image": "Α-3091-0003Β-BUILDING-S.jpg"
    },
    {
      "id": "Α-3091-0014",
      "lat": 34.689827,
      "lon": 33.045402,
      "type": "ΔΗΜΟΣΙΟ",
      "capacity": "130",
      "signNumber": "0014",
      "address": "ΓΛΑΥΚΟΥ ΑΛΙΘΕΡΣΗ 7, Λ/ΣΟΣ (ΑΓ. ΝΕΚΤΑΡΙΟΣ)",
      "district": "ΕΠΑΡΧΙΑ ΛΕΜΕΣΟΥ",
      "subDistrict": "ΑΝΑΤΟΛΙΚΗΣ ΛΕΜΕΣΟΥ",
      "image": "Α-3091-0014-BUILDING-S.jpg"
    },
    {
      "id": "Α-3091-0024",
      "lat": 34.69403,
      "lon": 33.051339,
      "type": "ΔΗΜΟΣΙΟ",
      "capacity": "100",
      "signNumber": "0024",
      "address": "ΟΜΗΡΟΥ 59 & ΔΑΒΑΚΗ, Λ/ΣΟΣ (ΑΓ. ΝΙΚΟΛΑΟΣ)",
      "district": "ΕΠΑΡΧΙΑ ΛΕΜΕΣΟΥ",
      "subDistrict": "ΑΝΑΤΟΛΙΚΗΣ ΛΕΜΕΣΟΥ",
      "image": "Α-3091-0024-BUILDING-S.jpg"
    },
    {
      "id": "Α-3091-0205",
      "lat": 34.69229,
      "lon": 33.051248,
      "type": "ΔΗΜΟΣΙΟ",
      "capacity": "75",
      "signNumber": "0205",
      "address": "ΒΟΥΔΑΠΕΣΤΗΣ 4, Λ/ΣΟΣ (ΑΓ. ΝΕΚΤΑΡΙΟΣ)",
      "district": "ΕΠΑΡΧΙΑ ΛΕΜΕΣΟΥ",
      "subDistrict": "ΑΝΑΤΟΛΙΚΗΣ ΛΕΜΕΣΟΥ",
      "image": "Α-3091-0205-BUILDING-S.jpg"
    },
    {
      "id": "Α-3091-0282",
      "lat": 34.693055,
      "lon": 33.048935,
      "type": "ΔΗΜΟΣΙΟ",
      "capacity": "25",
      "signNumber": "0282",
      "address": "ΙΑΚΩΒΟΥ ΠΑΤΑΤΣΟΥ 3 & ΜΙΧΑΗΛ ΠΑΡΙΔΟΥ, Λ/ΣΟΣ (ΑΓ. ΝΕΚΤΑΡΙΟΣ)",
      "district": "ΕΠΑΡΧΙΑ ΛΕΜΕΣΟΥ",
      "subDistrict": "ΑΝΑΤΟΛΙΚΗΣ ΛΕΜΕΣΟΥ",
      "image": "Α-3091-0282-BUILDING-S.jpg"
    },
    {
      "id": "Α-3095-0022",
      "lat": 34.69005,
      "lon": 33.054005,
      "type": "ΔΗΜΟΣΙΟ",
      "capacity": "200",
      "signNumber": "0022",
      "address": "ΟΜΗΡΟΥ 38 & ΝΙΚΗΣ PAKOVA CENTER,Λ/ΣΟΣ (ΑΓ. ΝΙΚΟΛΑΟΣ)",
      "district": "ΕΠΑΡΧΙΑ ΛΕΜΕΣΟΥ",
      "subDistrict": "ΑΝΑΤΟΛΙΚΗΣ ΛΕΜΕΣΟΥ",
      "image": "Α-3095-0022-BUILDING-S.jpg"
    },
    {
      "id": "Α-3095-0023",
      "lat": 34.690055,
      "lon": 33.05348,
      "type": "ΔΗΜΟΣΙΟ",
      "capacity": "200",
      "signNumber": "0023",
      "address": "ΟΜΗΡΟΥ 23 + ΠΟΡΦΥΡΙΟΥ ΔΙΚΑΙΟΥ HOMER COMPLEX,Λ/ΣΟΣ (ΑΓ. ΝΙΚΟΛΑΟΣ)",
      "district": "ΕΠΑΡΧΙΑ ΛΕΜΕΣΟΥ",
      "subDistrict": "ΑΝΑΤΟΛΙΚΗΣ ΛΕΜΕΣΟΥ",
      "image": "Α-3095-0023-BUILDING-S.jpg"
    },
    {
      "id": "Α-3095-0189",
      "lat": 34.689493,
      "lon": 33.04573,
      "type": "ΔΗΜΟΣΙΟ",
      "capacity": "37",
      "signNumber": "0189",
      "address": "25ΗΣ ΜΑΡΤΙΟΥ 10 & ΝΙΚΟΔΗΜΟΥ ΜΥΛΩΝΑ ΣΑΞΕΜΟ 6 ΚΩΡΤ,Λ/ΣΟΣ (ΑΓ. ΝΕΚΤΑΡΙΟΣ)",
      "district": "ΕΠΑΡΧΙΑ ΛΕΜΕΣΟΥ",
      "subDistrict": "ΑΝΑΤΟΛΙΚΗΣ ΛΕΜΕΣΟΥ",
      "image": "Α-3095-0189-BUILDING-S.jpg"
    },
    {
      "id": "Α-3095-0194",
      "lat": 34.68941,
      "lon": 33.05054,
      "type": "ΔΗΜΟΣΙΟ",
      "capacity": "50",
      "signNumber": "0194",
      "address": "ΠΙΝΔΑΡΟΥ 21 & ΚΙΜΩΝΟΣ, Λ/ΣΟΣ (ΑΓ. ΝΕΚΤΑΡΙΟΣ)",
      "district": "ΕΠΑΡΧΙΑ ΛΕΜΕΣΟΥ",
      "subDistrict": "ΑΝΑΤΟΛΙΚΗΣ ΛΕΜΕΣΟΥ",
      "image": "Α-3095-0194-BUILDING-S.jpg"
    },
    {
      "id": "Α-3100-0182",
      "lat": 34.69296,
      "lon": 33.056115,
      "type": "ΔΗΜΟΣΙΟ",
      "capacity": "130",
      "signNumber": "0182",
      "address": "ΑΓ. ΑΙΚΑΤΕΡΙΝΗΣ & ΑΙΣΩΠΟΥ 2 PNO HOUSE,Λ/ΣΟΣ (ΑΓ. ΝΙΚΟΛΑΟΣ)",
      "district": "ΕΠΑΡΧΙΑ ΛΕΜΕΣΟΥ",
      "subDistrict": "ΑΝΑΤΟΛΙΚΗΣ ΛΕΜΕΣΟΥ",
      "image": "Α-3100-0182-BUILDING-S.jpg"
    },
    {
      "id": "Α-3101-0062",
      "lat": 34.689286,
      "lon": 33.0596,
      "type": "ΔΗΜΟΣΙΟ",
      "capacity": "130",
      "signNumber": "0062",
      "address": "ΑΥΓΟΥΣΤΟΥ ΠΙΚΑΡ & ΧΡΙΣΤΟΥ ΟΙΚΟΝΟΜΙΔΗ, Λ/ΣΟΣ (ΝΕΑΠΟΛΗ)",
      "district": "ΕΠΑΡΧΙΑ ΛΕΜΕΣΟΥ",
      "subDistrict": "ΑΝΑΤΟΛΙΚΗΣ ΛΕΜΕΣΟΥ",
      "image": "Α-3101-0062-BUILDING-S.jpg"
    },
    {
      "id": "Α-3101-0056Α",
      "lat": 34.69115,
      "lon": 33.068292,
      "type": "ΔΗΜΟΣΙΟ",
      "capacity": "110",
      "signNumber": "0056",
      "address": "ΓΡΙΒΑ ΔΙΓΕΝΗ 132 ΚΑΝΙΚΑ ΣΙΛΒΕΡ ΧΑΟΥΣ 2,Λ/ΣΟΣ (ΝΕΑΠΟΛΗ)",
      "district": "ΕΠΑΡΧΙΑ ΛΕΜΕΣΟΥ",
      "subDistrict": "ΑΝΑΤΟΛΙΚΗΣ ΛΕΜΕΣΟΥ",
      "image": "Α-3101-0056Α-BUILDING-S.jpg"
    },
    {
      "id": "Α-3101-0056Β",
      "lat": 34.69115,
      "lon": 33.068292,
      "type": "ΔΗΜΟΣΙΟ",
      "capacity": "110",
      "signNumber": "0056",
      "address": "ΓΡΙΒΑ ΔΙΓΕΝΗ 132 ΚΑΝΙΚΑ ΣΙΛΒΕΡ ΧΑΟΥΣ 2,Λ/ΣΟΣ (ΝΕΑΠΟΛΗ)",
      "district": "ΕΠΑΡΧΙΑ ΛΕΜΕΣΟΥ",
      "subDistrict": "ΑΝΑΤΟΛΙΚΗΣ ΛΕΜΕΣΟΥ",
      "image": "Α-3101-0056Β-BUILDING-S.jpg"
    },
    {
      "id": "Α-3101-0057Α",
      "lat": 34.691305,
      "lon": 33.068158,
      "type": "ΔΗΜΟΣΙΟ",
      "capacity": "110",
      "signNumber": "0057",
      "address": "ΓΡΙΒΑ ΔΙΓΕΝΗ 130 ΚΑΝΙΚΑ ΣΙΛΒΕΡ ΧΑΟΥΣ 1,Λ/ΣΟΣ (ΝΕΑΠΟΛΗ)",
      "district": "ΕΠΑΡΧΙΑ ΛΕΜΕΣΟΥ",
      "subDistrict": "ΑΝΑΤΟΛΙΚΗΣ ΛΕΜΕΣΟΥ",
      "image": "Α-3101-0057Α-BUILDING-S.jpg"
    },
    {
      "id": "Α-3101-0057Β",
      "lat": 34.691305,
      "lon": 33.068158,
      "type": "ΔΗΜΟΣΙΟ",
      "capacity": "110",
      "signNumber": "0057",
      "address": "ΓΡΙΒΑ ΔΙΓΕΝΗ 130 ΚΑΝΙΚΑ ΣΙΛΒΕΡ ΧΑΟΥΣ 1,Λ/ΣΟΣ (ΝΕΑΠΟΛΗ)",
      "district": "ΕΠΑΡΧΙΑ ΛΕΜΕΣΟΥ",
      "subDistrict": "ΑΝΑΤΟΛΙΚΗΣ ΛΕΜΕΣΟΥ",
      "image": "Α-3101-0057Β-BUILDING-S.jpg"
    },
    {
      "id": "Α-3101-0058Α",
      "lat": 34.691475,
      "lon": 33.068033,
      "type": "ΔΗΜΟΣΙΟ",
      "capacity": "125",
      "signNumber": "0058",
      "address": "ΓΡΙΒΑ ΔΙΓΕΝΗ 128 BLUE DIAMOND,Λ/ΣΟΣ (ΝΕΑΠΟΛΗ)",
      "district": "ΕΠΑΡΧΙΑ ΛΕΜΕΣΟΥ",
      "subDistrict": "ΑΝΑΤΟΛΙΚΗΣ ΛΕΜΕΣΟΥ",
      "image": "Α-3101-0058Α-BUILDING-S.jpg"
    },
    {
      "id": "Α-3101-0058Β",
      "lat": 34.691475,
      "lon": 33.068033,
      "type": "ΔΗΜΟΣΙΟ",
      "capacity": "125",
      "signNumber": "0058",
      "address": "ΓΡΙΒΑ ΔΙΓΕΝΗ 128 BLUE DIAMOND,Λ/ΣΟΣ (ΝΕΑΠΟΛΗ)",
      "district": "ΕΠΑΡΧΙΑ ΛΕΜΕΣΟΥ",
      "subDistrict": "ΑΝΑΤΟΛΙΚΗΣ ΛΕΜΕΣΟΥ",
      "image": "Α-3101-0058Β-BUILDING-S.jpg"
    },
    {
      "id": "Α-3101-0161",
      "lat": 34.68975,
      "lon": 33.064088,
      "type": "ΔΗΜΟΣΙΟ",
      "capacity": "80",
      "signNumber": "0161",
      "address": "ΒΡΥΞΕΛΛΩΝ 15, Λ/ΣΟΣ (ΝΕΑΠΟΛΗ)",
      "district": "ΕΠΑΡΧΙΑ ΛΕΜΕΣΟΥ",
      "subDistrict": "ΑΝΑΤΟΛΙΚΗΣ ΛΕΜΕΣΟΥ",
      "image": "Α-3101-0161-BUILDING-S.jpg"
    },
    {
      "id": "Α-3101-0156",
      "lat": 34.693444,
      "lon": 33.064686,
      "type": "ΔΗΜΟΣΙΟ",
      "capacity": "130",
      "signNumber": "0156",
      "address": "ΓΡΙΒΑ ΔΙΓΕΝΗ 90 BELORIENT COURT,Λ/ΣΟΣ (ΝΕΑΠΟΛΗ)",
      "district": "ΕΠΑΡΧΙΑ ΛΕΜΕΣΟΥ",
      "subDistrict": "ΑΝΑΤΟΛΙΚΗΣ ΛΕΜΕΣΟΥ",
      "image": "Α-3101-0156-BUILDING-S.jpg"
    },
    {
      "id": "Α-3101-0030",
      "lat": 34.692255,
      "lon": 33.062645,
      "type": "ΔΗΜΟΣΙΟ",
      "capacity": "300",
      "signNumber": "0030",
      "address": "ΓΡΙΒΑ ΔΙΓΕΝΗ 93, Λ/ΣΟΣ (ΑΓ. ΝΙΚΟΛΑΟΣ)",
      "district": "ΕΠΑΡΧΙΑ ΛΕΜΕΣΟΥ",
      "subDistrict": "ΑΝΑΤΟΛΙΚΗΣ ΛΕΜΕΣΟΥ",
      "image": "Α-3101-0030-BUILDING-S.jpg"
    },
    {
      "id": "Α-3101-0031",
      "lat": 34.692206,
      "lon": 33.062895,
      "type": "ΔΗΜΟΣΙΟ",
      "capacity": "200",
      "signNumber": "0031",
      "address": "ΓΡΙΒΑ ΔΙΓΕΝΗ 95, Λ/ΣΟΣ (ΑΓ. ΝΙΚΟΛΑΟΣ)",
      "district": "ΕΠΑΡΧΙΑ ΛΕΜΕΣΟΥ",
      "subDistrict": "ΑΝΑΤΟΛΙΚΗΣ ΛΕΜΕΣΟΥ",
      "image": "Α-3101-0031-BUILDING-S.jpg"
    },
    {
      "id": "Α-3101-0032Α",
      "lat": 34.693077,
      "lon": 33.06397,
      "type": "ΔΗΜΟΣΙΟ",
      "capacity": "190",
      "signNumber": "0032",
      "address": "ΓΡΙΒΑ ΔΙΓΕΝΗ 105, Λ/ΣΟΣ (ΑΓ. ΝΙΚΟΛΑΟΣ)",
      "district": "ΕΠΑΡΧΙΑ ΛΕΜΕΣΟΥ",
      "subDistrict": "ΑΝΑΤΟΛΙΚΗΣ ΛΕΜΕΣΟΥ",
      "image": "Α-3101-0032Α-BUILDING-S.jpg"
    },
    {
      "id": "Α-3101-0032Β",
      "lat": 34.693078,
      "lon": 33.063972,
      "type": "ΔΗΜΟΣΙΟ",
      "capacity": "60",
      "signNumber": "0032",
      "address": "ΓΡΙΒΑ ΔΙΓΕΝΗ 105, Λ/ΣΟΣ (ΑΓ. ΝΙΚΟΛΑΟΣ)",
      "district": "ΕΠΑΡΧΙΑ ΛΕΜΕΣΟΥ",
      "subDistrict": "ΑΝΑΤΟΛΙΚΗΣ ΛΕΜΕΣΟΥ",
      "image": "Α-3101-0032Β-BUILDING-S.jpg"
    },
    {
      "id": "Α-3101-0033",
      "lat": 34.69452,
      "lon": 33.06525,
      "type": "ΔΗΜΟΣΙΟ",
      "capacity": "150",
      "signNumber": "0033",
      "address": "ΓΡΙΒΑ ΔΙΓΕΝΗ 123 & ΔΑΜΩΝΟΣ INTERSHIP HOUSE,Λ/ΣΟΣ (ΑΓ. ΝΙΚΟΛΑΟΣ)",
      "district": "ΕΠΑΡΧΙΑ ΛΕΜΕΣΟΥ",
      "subDistrict": "ΑΝΑΤΟΛΙΚΗΣ ΛΕΜΕΣΟΥ",
      "image": "Α-3101-0033-BUILDING-S.jpg"
    },
    {
      "id": "Α-3101-0279",
      "lat": 34.692902,
      "lon": 33.064039,
      "type": "ΔΗΜΟΣΙΟ",
      "capacity": "150",
      "signNumber": "0279",
      "address": "ΓΡΙΒΑ ΔΙΓΕΝΗ 84 ΣΑΒΒΙΔΗΣ ΚΩΡΤ,Λ/ΣΟΣ (ΝΕΑΠΟΛΗ)",
      "district": "ΕΠΑΡΧΙΑ ΛΕΜΕΣΟΥ",
      "subDistrict": "ΑΝΑΤΟΛΙΚΗΣ ΛΕΜΕΣΟΥ",
      "image": "Α-3101-0279-BUILDING-S.jpg"
    },
    {
      "id": "Α-3101-0443",
      "lat": 34.69344,
      "lon": 33.064125,
      "type": "ΔΗΜΟΣΙΟ",
      "capacity": "120",
      "signNumber": "0443",
      "address": "ΓΡΙΒΑ ΔΙΓΕΝΗ 109, Λ/ΣΟΣ (ΑΓ. ΝΙΚΟΛΑΟΣ)",
      "district": "ΕΠΑΡΧΙΑ ΛΕΜΕΣΟΥ",
      "subDistrict": "ΑΝΑΤΟΛΙΚΗΣ ΛΕΜΕΣΟΥ",
      "image": "Α-3101-0443-BUILDING-S.jpg"
    },
    {
      "id": "Α-3105-9608Α",
      "lat": 34.68373,
      "lon": 33.058119,
      "type": "ΔΗΜΟΣΙΟ",
      "capacity": "125",
      "signNumber": "9608",
      "address": "28ης ΟΚΤΩΒΡΙΟΥ ΙΤΕΡΑ ΕΝΑΕΡΙΟΣ ΚΟΜΠΛΕΞ,Λ/ΣΟΣ (ΝΕΑΠΟΛΗ)",
      "district": "ΕΠΑΡΧΙΑ ΛΕΜΕΣΟΥ",
      "subDistrict": "ΑΝΑΤΟΛΙΚΗΣ ΛΕΜΕΣΟΥ",
      "image": "Α-3105-9608Α-BUILDING-S.jpg"
    },
    {
      "id": "Α-3106-0063",
      "lat": 34.686438,
      "lon": 33.059455,
      "type": "ΔΗΜΟΣΙΟ",
      "capacity": "150",
      "signNumber": "0063",
      "address": "ΤΖΩΝ ΚΕΝΝΕΝΤΥ 8 ΙΡΙΣ & ΕΡΜΗΣ ΚΩΡΤ,Λ/ΣΟΣ (ΝΕΑΠΟΛΗ)",
      "district": "ΕΠΑΡΧΙΑ ΛΕΜΕΣΟΥ",
      "subDistrict": "ΑΝΑΤΟΛΙΚΗΣ ΛΕΜΕΣΟΥ",
      "image": "Α-3106-0063-BUILDING-S.jpg"
    },
    {
      "id": "Α-3105-9608Β",
      "lat": 34.68373,
      "lon": 33.058119,
      "type": "ΔΗΜΟΣΙΟ",
      "capacity": "125",
      "signNumber": "9608",
      "address": "28ης ΟΚΤΩΒΡΙΟΥ ΙΤΕΡΑ ΕΝΑΕΡΙΟΣ ΚΟΜΠΛΕΞ,Λ/ΣΟΣ (ΝΕΑΠΟΛΗ)",
      "district": "ΕΠΑΡΧΙΑ ΛΕΜΕΣΟΥ",
      "subDistrict": "ΑΝΑΤΟΛΙΚΗΣ ΛΕΜΕΣΟΥ",
      "image": "Α-3105-9608Β-BUILDING-S.jpg"
    },
    {
      "id": "Α-3106-0064",
      "lat": 34.686458,
      "lon": 33.059748,
      "type": "ΔΗΜΟΣΙΟ",
      "capacity": "70",
      "signNumber": "0064",
      "address": "ΤΖΩΝ ΚΕΝΝΕΝΤΥ 8 ΙΡΙΣ & ΕΡΜΗΣ ΚΩΡΤ,Λ/ΣΟΣ (ΝΕΑΠΟΛΗ)",
      "district": "ΕΠΑΡΧΙΑ ΛΕΜΕΣΟΥ",
      "subDistrict": "ΑΝΑΤΟΛΙΚΗΣ ΛΕΜΕΣΟΥ",
      "image": "Α-3106-0064-BUILDING-S.jpg"
    },
    {
      "id": "Α-3106-0153",
      "lat": 34.686673,
      "lon": 33.055817,
      "type": "ΔΗΜΟΣΙΟ",
      "capacity": "120",
      "signNumber": "0153",
      "address": "ΚΩΝΣΤΑΝΤΙΝΟΥ ΠΑΠΑΡΗΓΟΠΟΥΛΟΥ 9 ΦΡΙΜΑ ΧΑΟΥΣ,Λ/ΣΟΣ (ΝΕΑΠΟΛΗ)",
      "district": "ΕΠΑΡΧΙΑ ΛΕΜΕΣΟΥ",
      "subDistrict": "ΑΝΑΤΟΛΙΚΗΣ ΛΕΜΕΣΟΥ",
      "image": "Α-3106-0153-BUILDING-S.jpg"
    },
    {
      "id": "Α-3106-0154",
      "lat": 34.686495,
      "lon": 33.05593,
      "type": "ΔΗΜΟΣΙΟ",
      "capacity": "40",
      "signNumber": "0154",
      "address": "ΚΩΝΣΤΑΝΤΙΝΟΥ ΠΑΠΑΡΗΓΟΠΟΥΛΟΥ 15, Λ/ΣΟΣ (ΝΕΑΠΟΛΗ)",
      "district": "ΕΠΑΡΧΙΑ ΛΕΜΕΣΟΥ",
      "subDistrict": "ΑΝΑΤΟΛΙΚΗΣ ΛΕΜΕΣΟΥ",
      "image": "Α-3106-0154-BUILDING-S.jpg"
    },
    {
      "id": "Α-3106-0152",
      "lat": 34.685233,
      "lon": 33.061224,
      "type": "ΔΗΜΟΣΙΟ",
      "capacity": "150",
      "signNumber": "0152",
      "address": "28ης ΟΚΤΩΒΡΙΟΥ 333 ΑΡΙΑΔΝΗΣ ΧΑΟΥΣ,Λ/ΣΟΣ (ΝΕΑΠΟΛΗ)",
      "district": "ΕΠΑΡΧΙΑ ΛΕΜΕΣΟΥ",
      "subDistrict": "ΑΝΑΤΟΛΙΚΗΣ ΛΕΜΕΣΟΥ",
      "image": "Α-3106-0152-BUILDING-S.jpg"
    },
    {
      "id": "Α-3106-0258",
      "lat": 34.686355,
      "lon": 33.05836,
      "type": "ΔΗΜΟΣΙΟ",
      "capacity": "130",
      "signNumber": "0258",
      "address": "ΤΖΩΝ ΚΕΝΝΕΝΤΥ & ΗΡΑΚΛΗ ΑΡΑΟΥΖΟΥ ΣΤΕΦΕΛ ΚΩΡΤ,Λ/ΣΟΣ (ΝΕΑΠΟΛΗ)",
      "district": "ΕΠΑΡΧΙΑ ΛΕΜΕΣΟΥ",
      "subDistrict": "ΑΝΑΤΟΛΙΚΗΣ ΛΕΜΕΣΟΥ",
      "image": "Α-3106-0258-BUILDING-S.jpg"
    },
    {
      "id": "Α-3106-0358",
      "lat": 34.685649,
      "lon": 33.060973,
      "type": "ΔΗΜΟΣΙΟ",
      "capacity": "130",
      "signNumber": "0358",
      "address": "ΧΡΥΣΗ ΔΗΜΗΤΡΙΑΔΗ 3, Λ/ΣΟΣ (ΝΕΑΠΟΛΗ)",
      "district": "ΕΠΑΡΧΙΑ ΛΕΜΕΣΟΥ",
      "subDistrict": "ΑΝΑΤΟΛΙΚΗΣ ΛΕΜΕΣΟΥ",
      "image": "Α-3106-0358-BUILDING-S.jpg"
    },
    {
      "id": "Α-3106-9618",
      "lat": 34.686724,
      "lon": 33.059994,
      "type": "ΔΗΜΟΣΙΟ",
      "capacity": "70",
      "signNumber": "9618",
      "address": "ΤΖΩΝ ΚΕΝΝΕΝΤΥ 10 ΤΖΟΥΠΙΤΕΡ,Λ/ΣΟΣ (ΝΕΑΠΟΛΗ)",
      "district": "ΕΠΑΡΧΙΑ ΛΕΜΕΣΟΥ",
      "subDistrict": "ΑΝΑΤΟΛΙΚΗΣ ΛΕΜΕΣΟΥ",
      "image": "Α-3106-9618-BUILDING-S.jpg"
    },
    {
      "id": "Α-3106-9635",
      "lat": 34.686342,
      "lon": 33.05902,
      "type": "ΔΗΜΟΣΙΟ",
      "capacity": "75",
      "signNumber": "9635",
      "address": "ΤΖΩΝ ΚΕΝΝΕΝΤΥ 4 ΓΛΑΥΚΟΣ ΧΑΟΥΣ,Λ/ΣΟΣ (ΝΕΑΠΟΛΗ)",
      "district": "ΕΠΑΡΧΙΑ ΛΕΜΕΣΟΥ",
      "subDistrict": "ΑΝΑΤΟΛΙΚΗΣ ΛΕΜΕΣΟΥ",
      "image": "Α-3106-9635-BUILDING-S.jpg"
    },
    {
      "id": "Α-3107-0059Α",
      "lat": 34.68927,
      "lon": 33.067525,
      "type": "ΔΗΜΟΣΙΟ",
      "capacity": "125",
      "signNumber": "0059",
      "address": "28ΗΣ ΟΚΤΩΒΡΙΟΥ DEBENHAMS OLYMPIA,Λ/ΣΟΣ (ΝΕΑΠΟΛΗ)",
      "district": "ΕΠΑΡΧΙΑ ΛΕΜΕΣΟΥ",
      "subDistrict": "ΑΝΑΤΟΛΙΚΗΣ ΛΕΜΕΣΟΥ",
      "image": "Α-3107-0059Α-BUILDING-S.jpg"
    },
    {
      "id": "Α-3107-0059Β",
      "lat": 34.68927,
      "lon": 33.067525,
      "type": "ΔΗΜΟΣΙΟ",
      "capacity": "125",
      "signNumber": "0059",
      "address": "28ΗΣ ΟΚΤΩΒΡΙΟΥ DEBENHAMS OLYMPIA,Λ/ΣΟΣ (ΝΕΑΠΟΛΗ)",
      "district": "ΕΠΑΡΧΙΑ ΛΕΜΕΣΟΥ",
      "subDistrict": "ΑΝΑΤΟΛΙΚΗΣ ΛΕΜΕΣΟΥ",
      "image": "Α-3107-0059Β-BUILDING-S.jpg"
    },
    {
      "id": "Α-3107-0060Α",
      "lat": 34.68927,
      "lon": 33.067525,
      "type": "ΔΗΜΟΣΙΟ",
      "capacity": "125",
      "signNumber": "0060",
      "address": "28ΗΣ ΟΚΤΩΒΡΙΟΥ DEBENHAMS OLYMPIA,Λ/ΣΟΣ (ΝΕΑΠΟΛΗ)",
      "district": "ΕΠΑΡΧΙΑ ΛΕΜΕΣΟΥ",
      "subDistrict": "ΑΝΑΤΟΛΙΚΗΣ ΛΕΜΕΣΟΥ",
      "image": "Α-3107-0060Α-BUILDING-S.jpg"
    },
    {
      "id": "Α-3107-0060Β",
      "lat": 34.68927,
      "lon": 33.067525,
      "type": "ΔΗΜΟΣΙΟ",
      "capacity": "125",
      "signNumber": "0060",
      "address": "28ΗΣ ΟΚΤΩΒΡΙΟΥ DEBENHAMS OLYMPIA,Λ/ΣΟΣ (ΝΕΑΠΟΛΗ)",
      "district": "ΕΠΑΡΧΙΑ ΛΕΜΕΣΟΥ",
      "subDistrict": "ΑΝΑΤΟΛΙΚΗΣ ΛΕΜΕΣΟΥ",
      "image": "Α-3107-0060Β-BUILDING-S.jpg"
    },
    {
      "id": "Α-3107-0260",
      "lat": 34.68889,
      "lon": 33.069079,
      "type": "ΔΗΜΟΣΙΟ",
      "capacity": "100",
      "signNumber": "0260",
      "address": "28ης ΟΚΤΩΒΡΙΟΥ & ΔΑΝΤΗ ΟΡΑΤΗΣ BEACH HOTEL,Λ/ΣΟΣ (ΝΕΑΠΟΛΗ)",
      "district": "ΕΠΑΡΧΙΑ ΛΕΜΕΣΟΥ",
      "subDistrict": "ΑΝΑΤΟΛΙΚΗΣ ΛΕΜΕΣΟΥ",
      "image": "Α-3107-0260-BUILDING-S.jpg"
    },
    {
      "id": "Α-3107-0253Α",
      "lat": 34.688758,
      "lon": 33.067163,
      "type": "ΔΗΜΟΣΙΟ",
      "capacity": "125",
      "signNumber": "0253",
      "address": "ΑΛΕΞΑΝΔΡΟΥ ΥΨΗΛΑΝΤΗ 6 ΑΘΗΝΑ ΚΩΡΤ,Λ/ΣΟΣ (ΝΕΑΠΟΛΗ)",
      "district": "ΕΠΑΡΧΙΑ ΛΕΜΕΣΟΥ",
      "subDistrict": "ΑΝΑΤΟΛΙΚΗΣ ΛΕΜΕΣΟΥ",
      "image": "Α-3107-0253Α-BUILDING-S.jpg"
    },
    {
      "id": "Α-3107-0253Β",
      "lat": 34.688758,
      "lon": 33.067163,
      "type": "ΔΗΜΟΣΙΟ",
      "capacity": "125",
      "signNumber": "0253",
      "address": "ΑΛΕΞΑΝΔΡΟΥ ΥΨΗΛΑΝΤΗ 6 ΑΘΗΝΑ ΚΩΡΤ,Λ/ΣΟΣ (ΝΕΑΠΟΛΗ)",
      "district": "ΕΠΑΡΧΙΑ ΛΕΜΕΣΟΥ",
      "subDistrict": "ΑΝΑΤΟΛΙΚΗΣ ΛΕΜΕΣΟΥ",
      "image": "Α-3107-0253Β-BUILDING-S.jpg"
    },
    {
      "id": "Α-3110-9318Α",
      "lat": 34.70298,
      "lon": 33.0215,
      "type": "ΔΗΜΟΣΙΟ",
      "capacity": "80",
      "signNumber": "9318",
      "address": "ΔΟΜΝΙΤΣΑΣ ΛΑΝΙΤΟΥ ΙΕΡΟΣ ΝΑΟΣ ΑΓ. ΑΡΣΕΝΙΟΥ,Λ/ΣΟΣ (ΕΚΑΛΗ)",
      "district": "ΕΠΑΡΧΙΑ ΛΕΜΕΣΟΥ",
      "subDistrict": "ΑΝΑΤΟΛΙΚΗΣ ΛΕΜΕΣΟΥ",
      "image": "Α-3110-9318Α-BUILDING-S.jpg"
    },
    {
      "id": "Α-3110-9318Β",
      "lat": 34.70298,
      "lon": 33.0215,
      "type": "ΔΗΜΟΣΙΟ",
      "capacity": "80",
      "signNumber": "9318",
      "address": "ΔΟΜΝΙΤΣΑΣ ΛΑΝΙΤΟΥ ΙΕΡΟΣ ΝΑΟΣ ΑΓ. ΑΡΣΕΝΙΟΥ,Λ/ΣΟΣ (ΕΚΑΛΗ)",
      "district": "ΕΠΑΡΧΙΑ ΛΕΜΕΣΟΥ",
      "subDistrict": "ΑΝΑΤΟΛΙΚΗΣ ΛΕΜΕΣΟΥ",
      "image": "Α-3110-9318Β-BUILDING-S.jpg"
    },
    {
      "id": "Α-3110-9318Γ",
      "lat": 34.70298,
      "lon": 33.0215,
      "type": "ΔΗΜΟΣΙΟ",
      "capacity": "130",
      "signNumber": "9318",
      "address": "ΔΟΜΝΙΤΣΑΣ ΛΑΝΙΤΟΥ ΙΕΡΟΣ ΝΑΟΣ ΑΓ. ΑΡΣΕΝΙΟΥ,Λ/ΣΟΣ (ΕΚΑΛΗ)",
      "district": "ΕΠΑΡΧΙΑ ΛΕΜΕΣΟΥ",
      "subDistrict": "ΑΝΑΤΟΛΙΚΗΣ ΛΕΜΕΣΟΥ",
      "image": "Α-3110-9318Γ-BUILDING-S.jpg"
    },
    {
      "id": "Α-3110-9318Δ",
      "lat": 34.70298,
      "lon": 33.0215,
      "type": "ΔΗΜΟΣΙΟ",
      "capacity": "130",
      "signNumber": "9318",
      "address": "ΔΟΜΝΙΤΣΑΣ ΛΑΝΙΤΟΥ ΙΕΡΟΣ ΝΑΟΣ ΑΓ. ΑΡΣΕΝΙΟΥ,Λ/ΣΟΣ (ΕΚΑΛΗ)",
      "district": "ΕΠΑΡΧΙΑ ΛΕΜΕΣΟΥ",
      "subDistrict": "ΑΝΑΤΟΛΙΚΗΣ ΛΕΜΕΣΟΥ",
      "image": "Α-3110-9318Δ-BUILDING-S.jpg"
    },
    {
      "id": "Α-3110-9318Ε",
      "lat": 34.70298,
      "lon": 33.0215,
      "type": "ΔΗΜΟΣΙΟ",
      "capacity": "90",
      "signNumber": "9318",
      "address": "ΔΟΜΝΙΤΣΑΣ ΛΑΝΙΤΟΥ ΙΕΡΟΣ ΝΑΟΣ ΑΓ. ΑΡΣΕΝΙΟΥ,Λ/ΣΟΣ (ΕΚΑΛΗ)",
      "district": "ΕΠΑΡΧΙΑ ΛΕΜΕΣΟΥ",
      "subDistrict": "ΑΝΑΤΟΛΙΚΗΣ ΛΕΜΕΣΟΥ",
      "image": "Α-3110-9318Ε-BUILDING-S.jpg"
    },