{
  "shelters": [
    {
      "id": "Α-4001-0508",
      "lat": 34.69514,
      "lon": 33.04222,
      "type": "PUBLIC",
      "capacity": "330",
      "signNumber": "0",
      "address": "POULIOU & KAPOTA 8 EKKLESIA AG. ELEUTHERIOU,MESA GEITONIA",
      "district": "EPARCHIA LEMESOU",
      "subDistrict": "ANATOLIKES LEMESOU",
      "image": "Α-4001-0508-BUILDING-S.jpg"
    },
    {
      "id": "Α-3095-2025-4",
      "lat": 34.68710833333333,
      "lon": 33.052588,
      "type": "PUBLIC",
      "capacity": "-",
      "signNumber": "0",
      "address": "ANDREA ZAKOU 3 NAOS AG. IOSEF MNESTOROS,AGIOS NIKOLAOS",
      "district": "EPARCHIA LEMESOU",
      "subDistrict": "ANATOLIKES LEMESOU",
      "image": "Α-3095-2025-4-BUILDING-S.jpg"
    },
    {
      "id": "Α-3082-0504",
      "lat": 34.703,
      "lon": 33.03602,
      "type": "PUBLIC",
      "capacity": "70",
      "signNumber": "0",
      "address": "IEROU LOCHOU 39, ANATOLIKES LEMESOU",
      "district": "EPARCHIA LEMESOU",
      "subDistrict": "ANATOLIKES LEMESOU",
      "image": "Α-3082-0504-BUILDING-S.jpg"
    },
    {
      "id": "Α-3020-0004",
      "lat": 34.677747,
      "lon": 33.031446,
      "type": "PUBLIC",
      "capacity": "14",
      "signNumber": "0004",
      "address": "UPOL. NIKOU PAPAGEORGIOU 9A, L/SOS (KATHOLIKE)",
      "district": "EPARCHIA LEMESOU",
      "subDistrict": "ANATOLIKES LEMESOU",
      "image": "Α-3020-0004-BUILDING-S.jpg"
    },
    {
      "id": "Α-3020-0050",
      "lat": 34.680587,
      "lon": 33.031512,
      "type": "PUBLIC",
      "capacity": "50",
      "signNumber": "0050",
      "address": "AIOLOU 20, L/SOS (KATHOLIKE)",
      "district": "EPARCHIA LEMESOU",
      "subDistrict": "ANATOLIKES LEMESOU",
      "image": "Α-3020-0050-BUILDING-S.jpg"
    },
    {
      "id": "Α-3020-0067",
      "lat": 34.682182,
      "lon": 33.031779,
      "type": "PUBLIC",
      "capacity": "100",
      "signNumber": "0067",
      "address": "ARCH. LEONTIOU A 183, L/SOS (KATHOLIKE)",
      "district": "EPARCHIA LEMESOU",
      "subDistrict": "ANATOLIKES LEMESOU",
      "image": "Α-3020-0067-BUILDING-S.jpg"
    },
    {
      "id": "Α-3020-0131",
      "lat": 34.682045,
      "lon": 33.032017,
      "type": "PUBLIC",
      "capacity": "130",
      "signNumber": "0131",
      "address": "ARCH. LEONTIOU A 181,GKALAKSIA LEONTIOU MPILTINK GKALAKSIA LEONTIOU MPILTINK,L/SOS (KATHOLIKE)",
      "district": "EPARCHIA LEMESOU",
      "subDistrict": "ANATOLIKES LEMESOU",
      "image": "Α-3020-0131-BUILDING-S.jpg"
    },
    {
      "id": "Α-3020-0136",
      "lat": 34.67879,
      "lon": 33.033078,
      "type": "PUBLIC",
      "capacity": "15",
      "signNumber": "0136",
      "address": "AIOLOU 36, L/SOS (KATHOLIKE)",
      "district": "EPARCHIA LEMESOU",
      "subDistrict": "ANATOLIKES LEMESOU",
      "image": "Α-3020-0136-BUILDING-S.jpg"
    },
    {
      "id": "Α-3020-0166",
      "lat": 34.678269,
      "lon": 33.029898,
      "type": "PUBLIC",
      "capacity": "130",
      "signNumber": "0166",
      "address": "TAGMATARCHOU POULIOU & LOCHAGOU KAPOTA, L/SOS (KATHOLIKE)",
      "district": "EPARCHIA LEMESOU",
      "subDistrict": "ANATOLIKES LEMESOU",
      "image": "Α-3020-0166-BUILDING-S.jpg"
    },
    {
      "id": "Α-3020-0167",
      "lat": 34.680014,
      "lon": 33.031092,
      "type": "PUBLIC",
      "capacity": "75",
      "signNumber": "0167",
      "address": "BASILEIOU ALEKSANDROU 8, L/SOS (KATHOLIKE)",
      "district": "EPARCHIA LEMESOU",
      "subDistrict": "ANATOLIKES LEMESOU",
      "image": "Α-3020-0167-BUILDING-S.jpg"
    },
    {
      "id": "Α-3020-0255",
      "lat": 34.682415,
      "lon": 33.03128,
      "type": "PUBLIC",
      "capacity": "130",
      "signNumber": "0255",
      "address": "ARCH. LEONTIOU A 187,TSAKON KORT TSAKON KORT,L/SOS (KATHOLIKE)",
      "district": "EPARCHIA LEMESOU",
      "subDistrict": "ANATOLIKES LEMESOU",
      "image": "Α-3020-0255-BUILDING-S.jpg"
    },
    {
      "id": "Α-3020-0256",
      "lat": 34.682552,
      "lon": 33.031099,
      "type": "PUBLIC",
      "capacity": "130",
      "signNumber": "0256",
      "address": "ARCH. LEONTIOU A 189,LAIKE EPIPLAGORA LAIKE EPIPLAGORA,L/SOS (KATHOLIKE)",
      "district": "EPARCHIA LEMESOU",
      "subDistrict": "ANATOLIKES LEMESOU",
      "image": "Α-3020-0256-BUILDING-S.jpg"
    },
    {
      "id": "Α-3021-0304Α",
      "lat": 34.685458,
      "lon": 33.037361,
      "type": "PUBLIC",
      "capacity": "70",
      "signNumber": "0304",
      "address": "AG. FULAKSEOS 59 & EPISKOPOU LAURENTIOU, L/SOS (KATHOLIKE)",
      "district": "EPARCHIA LEMESOU",
      "subDistrict": "ANATOLIKES LEMESOU",
      "image": "Α-3021-0304Α-BUILDING-S.jpg"
    },
    {
      "id": "Α-3021-0304Β",
      "lat": 34.685458,
      "lon": 33.037361,
      "type": "PUBLIC",
      "capacity": "70",
      "signNumber": "0304",
      "address": "AG. FULAKSEOS 59 & EPISKOPOU LAURENTIOU, L/SOS (KATHOLIKE)",
      "district": "EPARCHIA LEMESOU",
      "subDistrict": "ANATOLIKES LEMESOU",
      "image": "Α-3021-0304Β-BUILDING-S.jpg"
    },
    {
      "id": "Α-3021-0054",
      "lat": 34.68145,
      "lon": 33.034803,
      "type": "PUBLIC",
      "capacity": "110",
      "signNumber": "0054",
      "address": "DODEKANESOU 3, L/SOS (KATHOLIKE)",
      "district": "EPARCHIA LEMESOU",
      "subDistrict": "ANATOLIKES LEMESOU",
      "image": "Α-3021-0054-BUILDING-S.jpg"
    },
    {
      "id": "Α-3021-0042Α",
      "lat": 34.68617,
      "lon": 33.03717,
      "type": "PUBLIC",
      "capacity": "110",
      "signNumber": "0042",
      "address": "LEOF. ARCH. MAKARIOU G 146,ALFA TAOUER ALFA TAOUER,L/SOS (KATHOLIKE)",
      "district": "EPARCHIA LEMESOU",
      "subDistrict": "ANATOLIKES LEMESOU",
      "image": "Α-3021-0042Α-BUILDING-S.jpg"
    },
    {
      "id": "Α-3021-0055Α",
      "lat": 34.68076,
      "lon": 33.035313,
      "type": "PUBLIC",
      "capacity": "110",
      "signNumber": "0055",
      "address": "DODEKANESOU 6, L/SOS (KATHOLIKE)",
      "district": "EPARCHIA LEMESOU",
      "subDistrict": "ANATOLIKES LEMESOU",
      "image": "Α-3021-0055Α-BUILDING-S.jpg"
    },
    {
      "id": "Α-3021-0065",
      "lat": 34.685544,
      "lon": 33.036081,
      "type": "PUBLIC",
      "capacity": "130",
      "signNumber": "0065",
      "address": "EPISKOPOU LAURENTIOU 10,KLINIKE KOUALE KLINIKE KOUALE,L/SOS (KATHOLIKE)",
      "district": "EPARCHIA LEMESOU",
      "subDistrict": "ANATOLIKES LEMESOU",
      "image": "Α-3021-0065-BUILDING-S.jpg"
    },
    {
      "id": "Α-3021-0055Β",
      "lat": 34.68076,
      "lon": 33.035313,
      "type": "PUBLIC",
      "capacity": "110",
      "signNumber": "0055",
      "address": "DODEKANESOU 6, L/SOS (KATHOLIKE)",
      "district": "EPARCHIA LEMESOU",
      "subDistrict": "ANATOLIKES LEMESOU",
      "image": "Α-3021-0055Β-BUILDING-S.jpg"
    },
    {
      "id": "Α-3021-0372",
      "lat": 34.681891,
      "lon": 33.032772,
      "type": "PUBLIC",
      "capacity": "27",
      "signNumber": "0372",
      "address": "ARCH. LEONTIOU A 238, L/SOS (KATHOLIKE)",
      "district": "EPARCHIA LEMESOU",
      "subDistrict": "ANATOLIKES LEMESOU",
      "image": "Α-3021-0372-BUILDING-S.jpg"
    },
    {
      "id": "Α-3021-0162Β",
      "lat": 34.683143,
      "lon": 33.030801,
      "type": "PUBLIC",
      "capacity": "125",
      "signNumber": "0162",
      "address": "ARCH. LEONTIOU A & LEUKOSIAS,MAKSIMOS KORT MAKSIMOS KORT,L/SOS (KATHOLIKE)",
      "district": "EPARCHIA LEMESOU",
      "subDistrict": "ANATOLIKES LEMESOU",
      "image": "Α-3021-0162Β-BUILDING-S.jpg"
    },
    {
      "id": "Α-3021-0162Α",
      "lat": 34.683143,
      "lon": 33.030801,
      "type": "PUBLIC",
      "capacity": "125",
      "signNumber": "0162",
      "address": "ARCH. LEONTIOU A & LEUKOSIAS,MAKSIMOS KORT MAKSIMOS KORT,L/SOS (KATHOLIKE)",
      "district": "EPARCHIA LEMESOU",
      "subDistrict": "ANATOLIKES LEMESOU",
      "image": "Α-3021-0162Α-BUILDING-S.jpg"
    },
    {
      "id": "Α-3021-0163Α",
      "lat": 34.683043,
      "lon": 33.031,
      "type": "PUBLIC",
      "capacity": "125",
      "signNumber": "0163",
      "address": "ARCH. LEONTIOU A & LEUKOSIAS,MAKSIMOS KORT MAKSIMOS KORT,L/SOS (KATHOLIKE)",
      "district": "EPARCHIA LEMESOU",
      "subDistrict": "ANATOLIKES LEMESOU",
      "image": "Α-3021-0163Α-BUILDING-S.jpg"
    },
    {
      "id": "Α-3021-0163Β",
      "lat": 34.683043,
      "lon": 33.031,
      "type": "PUBLIC",
      "capacity": "125",
      "signNumber": "0163",
      "address": "ARCH. LEONTIOU A & LEUKOSIAS,MAKSIMOS KORT MAKSIMOS KORT,L/SOS (KATHOLIKE)",
      "district": "EPARCHIA LEMESOU",
      "subDistrict": "ANATOLIKES LEMESOU",
      "image": "Α-3021-0163Β-BUILDING-S.jpg"
    },
    {
      "id": "Α-3021-0168",
      "lat": 34.685465,
      "lon": 33.033738,
      "type": "PUBLIC",
      "capacity": "40",
      "signNumber": "0168",
      "address": "IOANNE POLEME 7, L/SOS (KATHOLIKE)",
      "district": "EPARCHIA LEMESOU",
      "subDistrict": "ANATOLIKES LEMESOU",
      "image": "Α-3021-0168-BUILDING-S.jpg"
    },
    {
      "id": "Α-3021-0174",
      "lat": 34.686245,
      "lon": 33.033355,
      "type": "PUBLIC",
      "capacity": "106",
      "signNumber": "0174",
      "address": "IOANNE POLEME & LEOF. ARCH. MAKARIOU G 131 HELLENIC BANK,L/SOS( AP. PETROU&PAULOU)",
      "district": "EPARCHIA LEMESOU",
      "subDistrict": "ANATOLIKES LEMESOU",
      "image": "Α-3021-0174-BUILDING-S.jpg"
    },
    {
      "id": "Α-3021-0353Α",
      "lat": 34.683996,
      "lon": 33.031406,
      "type": "PUBLIC",
      "capacity": "125",
      "signNumber": "0353",
      "address": "LEOF. ARCH. MAKARIOU G 110 & LARNAKOS, L/SOS (KATHOLIKE)",
      "district": "EPARCHIA LEMESOU",
      "subDistrict": "ANATOLIKES LEMESOU",
      "image": "Α-3021-0353Α-BUILDING-S.jpg"
    },
    {
      "id": "Α-3021-0353Β",
      "lat": 34.683996,
      "lon": 33.031406,
      "type": "PUBLIC",
      "capacity": "125",
      "signNumber": "0353",
      "address": "LEOF. ARCH. MAKARIOU G 110 & LARNAKOS, L/SOS (KATHOLIKE)",
      "district": "EPARCHIA LEMESOU",
      "subDistrict": "ANATOLIKES LEMESOU",
      "image": "Α-3021-0353Β-BUILDING-S.jpg"
    },
    {
      "id": "Α-3021-0355Α",
      "lat": 34.682091,
      "lon": 33.032449,
      "type": "PUBLIC",
      "capacity": "35",
      "signNumber": "0355",
      "address": "ARCH. LEONTIOU A 242,LE VILLAGE LE VILLAGE,L/SOS (KATHOLIKE)",
      "district": "EPARCHIA LEMESOU",
      "subDistrict": "ANATOLIKES LEMESOU",
      "image": "Α-3021-0355Α-BUILDING-S.jpg"
    },
    {
      "id": "Α-3021-0355Β",
      "lat": 34.682091,
      "lon": 33.032449,
      "type": "PUBLIC",
      "capacity": "30",
      "signNumber": "0355",
      "address": "ARCH. LEONTIOU A 242,LE VILLAGE LE VILLAGE,L/SOS (KATHOLIKE)",
      "district": "EPARCHIA LEMESOU",
      "subDistrict": "ANATOLIKES LEMESOU",
      "image": "Α-3021-0355Β-BUILDING-S.jpg"
    },
    {
      "id": "Α-3021-0357",
      "lat": 34.684655,
      "lon": 33.03374,
      "type": "PUBLIC",
      "capacity": "130",
      "signNumber": "0357",
      "address": "PETROU TSIROU 2, L/SOS (KATHOLIKE)",
      "district": "EPARCHIA LEMESOU",
      "subDistrict": "ANATOLIKES LEMESOU",
      "image": "Α-3021-0357-BUILDING-S.jpg"
    },
    {
      "id": "Α-3021-0277",
      "lat": 34.683326,
      "lon": 33.030574,
      "type": "PUBLIC",
      "capacity": "130",
      "signNumber": "0277",
      "address": "LEOF. ARCH. MAKARIOU G & ARCH. LEONTIOU A,MAKSIMOS MAKSIMOS MPILTINGK,L/SOS (KATHOLIKE)",
      "district": "EPARCHIA LEMESOU",
      "subDistrict": "ANATOLIKES LEMESOU",
      "image": "Α-3021-0277-BUILDING-S.jpg"
    },
    {
      "id": "Α-3021-0042Β",
      "lat": 34.68617,
      "lon": 33.03713,
      "type": "PUBLIC",
      "capacity": "110",
      "signNumber": "0042",
      "address": "LEOF. ARCH. MAKARIOU G 146,ALFA TAOUER ALFA TAOUER,L/SOS (KATHOLIKE)",
      "district": "EPARCHIA LEMESOU",
      "subDistrict": "ANATOLIKES LEMESOU",
      "image": "Α-3021-0042Β-BUILDING-S.jpg"
    },
    {
      "id": "Α-3022-0132",
      "lat": 34.677314,
      "lon": 33.038498,
      "type": "PUBLIC",
      "capacity": "170",
      "signNumber": "0132",
      "address": "EIRENES 172 & 174, L/SOS (KATHOLIKE)",
      "district": "EPARCHIA LEMESOU",
      "subDistrict": "ANATOLIKES LEMESOU",
      "image": "Α-3022-0132-BUILDING-S.jpg"
    },
    {
      "id": "Α-3022-0170",
      "lat": 34.680284,
      "lon": 33.034768,
      "type": "PUBLIC",
      "capacity": "130",
      "signNumber": "0170",
      "address": "ARCH. LEONTIOU A 163,KLERIMOS KLERIMOS,L/SOS (KATHOLIKE)",
      "district": "EPARCHIA LEMESOU",
      "subDistrict": "ANATOLIKES LEMESOU",
      "image": "Α-3022-0170-BUILDING-S.jpg"
    },
    {
      "id": "Α-3022-0356",
      "lat": 34.679615,
      "lon": 33.035182,
      "type": "PUBLIC",
      "capacity": "125",
      "signNumber": "0356",
      "address": "CHRUSANTHOU EPISKOPOU PAFOU, L/SOS (KATHOLIKE)",
      "district": "EPARCHIA LEMESOU",
      "subDistrict": "ANATOLIKES LEMESOU",
      "image": "Α-3022-0356-BUILDING-S.jpg"
    },
    {
      "id": "Α-3022-0269",
      "lat": 34.680636,
      "lon": 33.036426,
      "type": "PUBLIC",
      "capacity": "130",
      "signNumber": "0269",
      "address": "IOANNE KOMNENOU 3, L/SOS (KATHOLIKE)",
      "district": "EPARCHIA LEMESOU",
      "subDistrict": "ANATOLIKES LEMESOU",
      "image": "Α-3022-0269-BUILDING-S.jpg"
    },
    {
      "id": "Α-3022-0285",
      "lat": 34.676498,
      "lon": 33.037936,
      "type": "PUBLIC",
      "capacity": "130",
      "signNumber": "0285",
      "address": "DEMOSTHENE MITSE 11,EFMA KORT EFMA KORT,L/SOS (KATHOLIKE)",
      "district": "EPARCHIA LEMESOU",
      "subDistrict": "ANATOLIKES LEMESOU",
      "image": "Α-3022-0285-BUILDING-S.jpg"
    },
    {
      "id": "Α-3025-0051",
      "lat": 34.684738,
      "lon": 33.041434,
      "type": "PUBLIC",
      "capacity": "130",
      "signNumber": "0051",
      "address": "THESSALONIKES 43 THESSALONIKE KORT,L/SOS  (AG. ZONE)",
      "district": "EPARCHIA LEMESOU",
      "subDistrict": "ANATOLIKES LEMESOU",
      "image": "Α-3025-0051-BUILDING-S.jpg"
    },
    {
      "id": "Α-3025-0053",
      "lat": 34.680947,
      "lon": 33.0397,
      "type": "PUBLIC",
      "capacity": "120",
      "signNumber": "0053",
      "address": "AG. FULAKSEOS 42 & ATHENAIDOS LANITOU SUNERGATIKO TAMIEUTERIO LEMESOU,L/SOS  (AG. ZONE)",
      "district": "EPARCHIA LEMESOU",
      "subDistrict": "ANATOLIKES LEMESOU",
      "image": "Α-3025-0053-BUILDING-S.jpg"
    },
    {
      "id": "Α-3025-0134",
      "lat": 34.682343,
      "lon": 33.041445,
      "type": "PUBLIC",
      "capacity": "100",
      "signNumber": "0134",
      "address": "THESSALONIKES 22,OMEROS KORT OMEROS KORT,L/SOS  (AG. ZONE)",
      "district": "EPARCHIA LEMESOU",
      "subDistrict": "ANATOLIKES LEMESOU",
      "image": "Α-3025-0134-BUILDING-S.jpg"
    },
    {
      "id": "Α-3025-0251",
      "lat": 34.68451,
      "lon": 33.039208,
      "type": "PUBLIC",
      "capacity": "75",
      "signNumber": "0251",
      "address": "THESSALONIKES 61, L/SOS  (AG. ZONE)",
      "district": "EPARCHIA LEMESOU",
      "subDistrict": "ANATOLIKES LEMESOU",
      "image": "Α-3025-0251-BUILDING-S.jpg"
    },
    {
      "id": "Α-3025-0262",
      "lat": 34.68574,
      "lon": 33.037319,
      "type": "PUBLIC",
      "capacity": "20",
      "signNumber": "0262",
      "address": "AG. FULAKSEOS 61, L/SOS (KATHOLIKE)",
      "district": "EPARCHIA LEMESOU",
      "subDistrict": "ANATOLIKES LEMESOU",
      "image": "Α-3025-0262-BUILDING-S.jpg"
    },
    {
      "id": "Α-3025-0263",
      "lat": 34.680342,
      "lon": 33.039616,
      "type": "PUBLIC",
      "capacity": "50",
      "signNumber": "0263",
      "address": "AG. FULAKSEOS 15 & ORFEOS SUPERMARKET KYRIAKOU & SON,L/SOS (KATHOLIKE)",
      "district": "EPARCHIA LEMESOU",
      "subDistrict": "ANATOLIKES LEMESOU",
      "image": "Α-3025-0263-BUILDING-S.jpg"
    },
    {
      "id": "Α-3025-0374",
      "lat": 34.682043,
      "lon": 33.040648,
      "type": "PUBLIC",
      "capacity": "150",
      "signNumber": "0374",
      "address": "NAUPLIOU 28 & THESEOS, L/SOS  (AG. ZONE)",
      "district": "EPARCHIA LEMESOU",
      "subDistrict": "ANATOLIKES LEMESOU",
      "image": "Α-3025-0374-BUILDING-S.jpg"
    },
    {
      "id": "Α-3025-0352Α",
      "lat": 34.681048,
      "lon": 33.041133,
      "type": "PUBLIC",
      "capacity": "65",
      "signNumber": "0352",
      "address": "NAUPLIOU 15,PALEMA BUSINESS CENTER PALEMA BUSINESS CENTER,L/SOS  (AG. ZONE)",
      "district": "EPARCHIA LEMESOU",
      "subDistrict": "ANATOLIKES LEMESOU",
      "image": "Α-3025-0352Α-BUILDING-S.jpg"
    },
    {
      "id": "Α-3025-0352Β",
      "lat": 34.681048,
      "lon": 33.041133,
      "type": "PUBLIC",
      "capacity": "65",
      "signNumber": "0352",
      "address": "NAUPLIOU 15,PALEMA BUSINESS CENTER PALEMA BUSINESS CENTER,L/SOS  (AG. ZONE)",
      "district": "EPARCHIA LEMESOU",
      "subDistrict": "ANATOLIKES LEMESOU",
      "image": "Α-3025-0352Β-BUILDING-S.jpg"
    },
    {
      "id": "Α-3025-0266",
      "lat": 34.68398,
      "lon": 33.037521,
      "type": "PUBLIC",
      "capacity": "45",
      "signNumber": "0266",
      "address": "AG. FULAKSEOS 47, L/SOS (KATHOLIKE)",
      "district": "EPARCHIA LEMESOU",
      "subDistrict": "ANATOLIKES LEMESOU",
      "image": "Α-3025-0266-BUILDING-S.jpg"
    },
    {
      "id": "Α-3025-0270",
      "lat": 34.679981,
      "lon": 33.039919,
      "type": "PUBLIC",
      "capacity": "60",
      "signNumber": "0270",
      "address": "AG. FULAKSEOS 9 EUTUCHIA KORT,L/SOS (KATHOLIKE)",
      "district": "EPARCHIA LEMESOU",
      "subDistrict": "ANATOLIKES LEMESOU",
      "image": "Α-3025-0270-BUILDING-S.jpg"
    },
    {
      "id": "Α-3025-0292",
      "lat": 34.680497,
      "lon": 33.039837,
      "type": "PUBLIC",
      "capacity": "100",
      "signNumber": "0292",
      "address": "AG. FULAKSEOS 38,NIKOLAS KORT NIKOLAS KORT,L/SOS  (AG. ZONE)",
      "district": "EPARCHIA LEMESOU",
      "subDistrict": "ANATOLIKES LEMESOU",
      "image": "Α-3025-0292-BUILDING-S.jpg"
    },
    {
      "id": "Α-3026-0044",
      "lat": 34.68293,
      "lon": 33.040455,
      "type": "PUBLIC",
      "capacity": "100",
      "signNumber": "0044",
      "address": "ETHNIKES ANTISTASEOS 37 & THESSALONIKES, L/SOS  (AG. ZONE)",
      "district": "EPARCHIA LEMESOU",
      "subDistrict": "ANATOLIKES LEMESOU",
      "image": "Α-3026-0044-BUILDING-S.jpg"
    },
    {
      "id": "Α-3026-0158Α",
      "lat": 34.681045,
      "lon": 33.042786,
      "type": "PUBLIC",
      "capacity": "125",
      "signNumber": "0158",
      "address": "THESSALONIKES & AG. ZONES,NIKOLAOU SENTER NIKOLAOU SENTER,L/SOS  (AG. ZONE)",
      "district": "EPARCHIA LEMESOU",
      "subDistrict": "ANATOLIKES LEMESOU",
      "image": "Α-3026-0158Α-BUILDING-S.jpg"
    },
    {
      "id": "Α-3026-0159Α",
      "lat": 34.681045,
      "lon": 33.043115,
      "type": "PUBLIC",
      "capacity": "125",
      "signNumber": "0159",
      "address": "THESSALONIKES & AG. ZONES,NIKOLAOU SENTER NIKOLAOU SENTER,L/SOS  (AG. ZONE)",
      "district": "EPARCHIA LEMESOU",
      "subDistrict": "ANATOLIKES LEMESOU",
      "image": "Α-3026-0159Α-BUILDING-S.jpg"
    },
    {
      "id": "Α-3026-0257",
      "lat": 34.685406,
      "lon": 33.040403,
      "type": "PUBLIC",
      "capacity": "100",
      "signNumber": "0257",
      "address": "NIKOU KARBOUNE & ARGUROKASTROU, L/SOS  (AG. ZONE)",
      "district": "EPARCHIA LEMESOU",
      "subDistrict": "ANATOLIKES LEMESOU",
      "image": "Α-3026-0257-BUILDING-S.jpg"
    },
    {
      "id": "Α-3026-0259",
      "lat": 34.68229,
      "lon": 33.043044,
      "type": "PUBLIC",
      "capacity": "60",
      "signNumber": "0259",
      "address": "BASILE MICHAELIDE 8, L/SOS  (AG. ZONE)",
      "district": "EPARCHIA LEMESOU",
      "subDistrict": "ANATOLIKES LEMESOU",
      "image": "Α-3026-0259-BUILDING-S.jpg"
    },
    {
      "id": "Α-3026-0261",
      "lat": 34.686347,
      "lon": 33.039961,
      "type": "PUBLIC",
      "capacity": "90",
      "signNumber": "0261",
      "address": "IOANNE KONDULAKE 15,NEOKLES KORT NEOKLES KORT,L/SOS  (AG. ZONE)",
      "district": "EPARCHIA LEMESOU",
      "subDistrict": "ANATOLIKES LEMESOU",
      "image": "Α-3026-0261-BUILDING-S.jpg"
    },
    {
      "id": "Α-3026-0274",
      "lat": 34.682044,
      "lon": 33.042932,
      "type": "PUBLIC",
      "capacity": "120",
      "signNumber": "0274",
      "address": "BASILE MICHAELIDE 7, L/SOS  (AG. ZONE)",
      "district": "EPARCHIA LEMESOU",
      "subDistrict": "ANATOLIKES LEMESOU",
      "image": "Α-3026-0274-BUILDING-S.jpg"
    },
    {
      "id": "Α-3026-0275",
      "lat": 34.682044,
      "lon": 33.042932,
      "type": "PUBLIC",
      "capacity": "100",
      "signNumber": "0275",
      "address": "BASILE MICHAELIDE 7, L/SOS  (AG. ZONE)",
      "district": "EPARCHIA LEMESOU",
      "subDistrict": "ANATOLIKES LEMESOU",
      "image": "Α-3026-0275-BUILDING-S.jpg"
    },
    {
      "id": "Α-3026-0218",
      "lat": 34.68724,
      "lon": 33.03971,
      "type": "PUBLIC",
      "capacity": "100",
      "signNumber": "0218",
      "address": "LEOF. ARCH. MAKARIOU G 153 \"Y\" COURT,L/SOS (KAPSALOS)",
      "district": "EPARCHIA LEMESOU",
      "subDistrict": "ANATOLIKES LEMESOU",
      "image": "Α-3026-0218-BUILDING-S.jpg"
    },
    {
      "id": "Α-3026-0158Β",
      "lat": 34.681045,
      "lon": 33.042786,
      "type": "PUBLIC",
      "capacity": "125",
      "signNumber": "0158",
      "address": "THESSALONIKES & AG. ZONES,NIKOLAOU SENTER NIKOLAOU SENTER,L/SOS  (AG. ZONE)",
      "district": "EPARCHIA LEMESOU",
      "subDistrict": "ANATOLIKES LEMESOU",
      "image": "Α-3026-0158Β-BUILDING-S.jpg"
    },
    {
      "id": "Α-3026-0159Β",
      "lat": 34.681045,
      "lon": 33.043115,
      "type": "PUBLIC",
      "capacity": "125",
      "signNumber": "0159",
      "address": "THESSALONIKES & AG. ZONES,NIKOLAOU SENTER NIKOLAOU SENTER,L/SOS  (AG. ZONE)",
      "district": "EPARCHIA LEMESOU",
      "subDistrict": "ANATOLIKES LEMESOU",
      "image": "Α-3026-0159Β-BUILDING-S.jpg"
    },
    {
      "id": "Α-3026-9706",
      "lat": 34.683396,
      "lon": 33.040183,
      "type": "SHARED",
      "capacity": "75",
      "signNumber": "9706",
      "address": "GREGORE AUKSENTIOU 37 & THESSALONIKES,KURIAKOS KORT KURIAKOS KORT,L/SOS  (AG. ZONE)",
      "district": "EPARCHIA LEMESOU",
      "subDistrict": "ANATOLIKES LEMESOU",
      "image": "Α-3026-9706-BUILDING-S.jpg"
    },
    {
      "id": "Α-3027-0041Α",
      "lat": 34.686428,
      "lon": 33.043723,
      "type": "PUBLIC",
      "capacity": "110",
      "signNumber": "0041",
      "address": "PLATONOS 4, L/SOS  (AG. ZONE)",
      "district": "EPARCHIA LEMESOU",
      "subDistrict": "ANATOLIKES LEMESOU",
      "image": "Α-3027-0041Α-BUILDING-S.jpg"
    },
    {
      "id": "Α-3027-0043",
      "lat": 34.685323,
      "lon": 33.044228,
      "type": "PUBLIC",
      "capacity": "135",
      "signNumber": "0043",
      "address": "AG. ZONES 30A & KOSTA PARTASIDE, L/SOS  (AG. ZONE)",
      "district": "EPARCHIA LEMESOU",
      "subDistrict": "ANATOLIKES LEMESOU",
      "image": "Α-3027-0043-BUILDING-S.jpg"
    },
    {
      "id": "Α-3027-0139",
      "lat": 34.685559,
      "lon": 33.044217,
      "type": "PUBLIC",
      "capacity": "110",
      "signNumber": "0139",
      "address": "AG. ZONES 32 & KOSTA PARTASIDE OIKEMA AKEL,L/SOS  (AG. ZONE)",
      "district": "EPARCHIA LEMESOU",
      "subDistrict": "ANATOLIKES LEMESOU",
      "image": "Α-3027-0139-BUILDING-S.jpg"
    },
    {
      "id": "Α-3027-0164",
      "lat": 34.68216,
      "lon": 33.043838,
      "type": "PUBLIC",
      "capacity": "50",
      "signNumber": "0164",
      "address": "AG. ZONES 10,MARIOS SNAKS MARIOS SNAKS,L/SOS  (AG. ZONE)",
      "district": "EPARCHIA LEMESOU",
      "subDistrict": "ANATOLIKES LEMESOU",
      "image": "Α-3027-0164-BUILDING-S.jpg"
    },
    {
      "id": "Α-3027-0264",
      "lat": 34.683843,
      "lon": 33.043864,
      "type": "PUBLIC",
      "capacity": "150",
      "signNumber": "0264",
      "address": "AG. ZONES 29,ARCADE TOWER ARCADE TOWER,L/SOS  (AG. ZONE)",
      "district": "EPARCHIA LEMESOU",
      "subDistrict": "ANATOLIKES LEMESOU",
      "image": "Α-3027-0264-BUILDING-S.jpg"
    },
    {
      "id": "Α-3027-0273",
      "lat": 34.686601,
      "lon": 33.043956,
      "type": "PUBLIC",
      "capacity": "100",
      "signNumber": "0273",
      "address": "AG. ZONES 43, L/SOS  (AG. ZONE)",
      "district": "EPARCHIA LEMESOU",
      "subDistrict": "ANATOLIKES LEMESOU",
      "image": "Α-3027-0273-BUILDING-S.jpg"
    },
    {
      "id": "Α-3027-0412",
      "lat": 34.68807,
      "lon": 33.0443,
      "type": "PUBLIC",
      "capacity": "50",
      "signNumber": "0412",
      "address": "LEOF. ARCH. MAKARIOU G 171,VANEZIS BUSINESS CENTER VANEZIS BUSINESS CENTER,L/SOS  (AG. ZONE)",
      "district": "EPARCHIA LEMESOU",
      "subDistrict": "ANATOLIKES LEMESOU",
      "image": "Α-3027-0412-BUILDING-S.jpg"
    },
    {
      "id": "Α-3027-0413",
      "lat": 34.68807,
      "lon": 33.0443,
      "type": "PUBLIC",
      "capacity": "100",
      "signNumber": "0413",
      "address": "LEOF. ARCH. MAKARIOU G 171,VANEZIS BUSINESS CENTER VANEZIS BUSINESS CENTER,L/SOS  (AG. ZONE)",
      "district": "EPARCHIA LEMESOU",
      "subDistrict": "ANATOLIKES LEMESOU",
      "image": "Α-3027-0413-BUILDING-S.jpg"
    },
    {
      "id": "Α-3027-0041Β",
      "lat": 34.686428,
      "lon": 33.043723,
      "type": "PUBLIC",
      "capacity": "110",
      "signNumber": "0041",
      "address": "PLATONOS 4, L/SOS  (AG. ZONE)",
      "district": "EPARCHIA LEMESOU",
      "subDistrict": "ANATOLIKES LEMESOU",
      "image": "Α-3027-0041Β-BUILDING-S.jpg"
    },
    {
      "id": "Α-3030-0140",
      "lat": 34.687229,
      "lon": 33.041569,
      "type": "PUBLIC",
      "capacity": "100",
      "signNumber": "0140",
      "address": "LEOF. ARCH. MAKARIOU G 176 PASCHALIS AV. HOUSE,L/SOS  (AG. ZONE)",
      "district": "EPARCHIA LEMESOU",
      "subDistrict": "ANATOLIKES LEMESOU",
      "image": "Α-3030-0140-BUILDING-S.jpg"
    },
    {
      "id": "Α-3030-0141",
      "lat": 34.686853,
      "lon": 33.048808,
      "type": "PUBLIC",
      "capacity": "120",
      "signNumber": "0141",
      "address": "MANOLE KALOMOIRE 20, L/SOS  (AG. ZONE)",
      "district": "EPARCHIA LEMESOU",
      "subDistrict": "ANATOLIKES LEMESOU",
      "image": "Α-3030-0141-BUILDING-S.jpg"
    },
    {
      "id": "Α-3030-0143Α",
      "lat": 34.686664,
      "lon": 33.050898,
      "type": "PUBLIC",
      "capacity": "150",
      "signNumber": "0143",
      "address": "THEKLAS LUSIOTE 4,CHARMONU CHAOUS,L/SOS  (AG. ZONE)",
      "district": "EPARCHIA LEMESOU",
      "subDistrict": "ANATOLIKES LEMESOU",
      "image": "Α-3030-0143Α-BUILDING-S.jpg"
    },
    {
      "id": "Α-3030-0143Β",
      "lat": 34.686664,
      "lon": 33.050898,
      "type": "PUBLIC",
      "capacity": "150",
      "signNumber": "0143",
      "address": "THEKLAS LUSIOTE 4,CHARMONU CHAOUS,L/SOS  (AG. ZONE)",
      "district": "EPARCHIA LEMESOU",
      "subDistrict": "ANATOLIKES LEMESOU",
      "image": "Α-3030-0143Β-BUILDING-S.jpg"
    },
    {
      "id": "Α-3030-0144Α",
      "lat": 34.686526,
      "lon": 33.051787,
      "type": "PUBLIC",
      "capacity": "125",
      "signNumber": "0144",
      "address": "LEOF. ARCH. MAKARIOU G 228,AGIOS PAULOS,L/SOS  (AG. ZONE)",
      "district": "EPARCHIA LEMESOU",
      "subDistrict": "ANATOLIKES LEMESOU",
      "image": "Α-3030-0144Α-BUILDING-S.jpg"
    },
    {
      "id": "Α-3030-0144Β",
      "lat": 34.686526,
      "lon": 33.051787,
      "type": "PUBLIC",
      "capacity": "125",
      "signNumber": "0144",
      "address": "LEOF. ARCH. MAKARIOU G 228,AGIOS PAULOS,L/SOS  (AG. ZONE)",
      "district": "EPARCHIA LEMESOU",
      "subDistrict": "ANATOLIKES LEMESOU",
      "image": "Α-3030-0144Β-BUILDING-S.jpg"
    },
    {
      "id": "Α-3030-0145Α",
      "lat": 34.686352,
      "lon": 33.052583,
      "type": "PUBLIC",
      "capacity": "115",
      "signNumber": "0145",
      "address": "CHRUSANTHOU MULONA 5,LORDOS APOLLON KORT,L/SOS  (AG. ZONE)",
      "district": "EPARCHIA LEMESOU",
      "subDistrict": "ANATOLIKES LEMESOU",
      "image": "Α-3030-0145Α-BUILDING-S.jpg"
    },
    {
      "id": "Α-3030-0145Β",
      "lat": 34.686352,
      "lon": 33.052583,
      "type": "PUBLIC",
      "capacity": "115",
      "signNumber": "0145",
      "address": "CHRUSANTHOU MULONA 5,LORDOS APOLLON KORT LORDOS APOLLON KORT,L/SOS  (AG. ZONE)",
      "district": "EPARCHIA LEMESOU",
      "subDistrict": "ANATOLIKES LEMESOU",
      "image": "Α-3030-0145Β-BUILDING-S.jpg"
    },
    {
      "id": "Α-3030-0146Α",
      "lat": 34.686348,
      "lon": 33.052672,
      "type": "PUBLIC",
      "capacity": "115",
      "signNumber": "0146",
      "address": "CHRUSANTHOU MULONA 5,LORDOS APOLLON KORT LORDOS APOLLON KORT,L/SOS  (AG. ZONE)",
      "district": "EPARCHIA LEMESOU",
      "subDistrict": "ANATOLIKES LEMESOU",
      "image": "Α-3030-0146Α-BUILDING-S.jpg"
    },
    {
      "id": "Α-3030-0146Β",
      "lat": 34.686348,
      "lon": 33.052672,
      "type": "PUBLIC",
      "capacity": "115",
      "signNumber": "0146",
      "address": "CHRUSANTHOU MULONA 5,LORDOS APOLLON KORT LORDOS APOLLON KORT,L/SOS  (AG. ZONE)",
      "district": "EPARCHIA LEMESOU",
      "subDistrict": "ANATOLIKES LEMESOU",
      "image": "Α-3030-0146Β-BUILDING-S.jpg"
    },
    {
      "id": "Α-3030-0147",
      "lat": 34.686306,
      "lon": 33.049548,
      "type": "PUBLIC",
      "capacity": "40",
      "signNumber": "0147",
      "address": "THEKLAS LUSIOTE 33, L/SOS  (AG. ZONE)",
      "district": "EPARCHIA LEMESOU",
      "subDistrict": "ANATOLIKES LEMESOU",
      "image": "Α-3030-0147-BUILDING-S.jpg"
    },
    {
      "id": "Α-3030-0151",
      "lat": 34.686559,
      "lon": 33.050159,
      "type": "PUBLIC",
      "capacity": "130",
      "signNumber": "0151",
      "address": "THEKLAS LUSIOTE 37 TZEMINI CHAOUS,L/SOS  (AG. ZONE)",
      "district": "EPARCHIA LEMESOU",
      "subDistrict": "ANATOLIKES LEMESOU",
      "image": "Α-3030-0151-BUILDING-S.jpg"
    },
    {
      "id": "Α-3030-0150Α",
      "lat": 34.68708,
      "lon": 33.05023,
      "type": "PUBLIC",
      "capacity": "115",
      "signNumber": "0150",
      "address": "LEOF. ARCH. MAKARIOU G 224, ACHILLEOS KORT,L/SOS  (AG. ZONE)",
      "district": "EPARCHIA LEMESOU",
      "subDistrict": "ANATOLIKES LEMESOU",
      "image": "Α-3030-0150Α-BUILDING-S.jpg"
    },
    {
      "id": "Α-3030-0150Β",
      "lat": 34.68708,
      "lon": 33.05023,
      "type": "PUBLIC",
      "capacity": "115",
      "signNumber": "0150",
      "address": "LEOF. ARCH. MAKARIOU G 224,ACHILLEOS KORT,L/SOS  (AG. ZONE)",
      "district": "EPARCHIA LEMESOU",
      "subDistrict": "ANATOLIKES LEMESOU",
      "image": "Α-3030-0150Β-BUILDING-S.jpg"
    },
    {
      "id": "Α-3030-0265",
      "lat": 34.68733,
      "lon": 33.04444,
      "type": "PUBLIC",
      "capacity": "150",
      "signNumber": "0265",
      "address": "LEOF. ARCH. MAKARIOU G 196, L/SOS  (AG. ZONE)",
      "district": "EPARCHIA LEMESOU",
      "subDistrict": "ANATOLIKES LEMESOU",
      "image": "Α-3030-0265-BUILDING-S.jpg"
    },
    {
      "id": "Α-3030-0268Α",
      "lat": 34.6871,
      "lon": 33.04764,
      "type": "PUBLIC",
      "capacity": "125",
      "signNumber": "0268",
      "address": "LEOF. ARCH. MAKARIOU G 212,SETA KORT,L/SOS  (AG. ZONE)",
      "district": "EPARCHIA LEMESOU",
      "subDistrict": "ANATOLIKES LEMESOU",
      "image": "Α-3030-0268Α-BUILDING-S.jpg"
    },
    {
      "id": "Α-3030-0268Β",
      "lat": 34.6871,
      "lon": 33.04764,
      "type": "PUBLIC",
      "capacity": "125",
      "signNumber": "0268",
      "address": "LEOF. ARCH. MAKARIOU G 212,SETA KORT,L/SOS  (AG. ZONE)",
      "district": "EPARCHIA LEMESOU",
      "subDistrict": "ANATOLIKES LEMESOU",
      "image": "Α-3030-0268Β-BUILDING-S.jpg"
    },
    {
      "id": "Α-3030-0278Α",
      "lat": 34.686469,
      "lon": 33.049415,
      "type": "PUBLIC",
      "capacity": "200",
      "signNumber": "0278",
      "address": "NIKEFOROU GREGORA 5,MARKS & SPENSER,L/SOS  (AG. ZONE)",
      "district": "EPARCHIA LEMESOU",
      "subDistrict": "ANATOLIKES LEMESOU",
      "image": "Α-3030-0278Α-BUILDING-S.jpg"
    },
    {
      "id": "Α-3030-0278Β",
      "lat": 34.686469,
      "lon": 33.049415,
      "type": "PUBLIC",
      "capacity": "200",
      "signNumber": "0278",
      "address": "NIKEFOROU GREGORA 5,MARKS & SPENSER,L/SOS  (AG. ZONE)",
      "district": "EPARCHIA LEMESOU",
      "subDistrict": "ANATOLIKES LEMESOU",
      "image": "Α-3030-0278Β-BUILDING-S.jpg"
    },
    {
      "id": "Α-3030-0278Γ",
      "lat": 34.686469,
      "lon": 33.049415,
      "type": "PUBLIC",
      "capacity": "200",
      "signNumber": "0278",
      "address": "NIKEFOROU GREGORA 5,MARKS & SPENSER,L/SOS  (AG. ZONE)",
      "district": "EPARCHIA LEMESOU",
      "subDistrict": "ANATOLIKES LEMESOU",
      "image": "Α-3030-0278Γ-BUILDING-S.jpg"
    },
    {
      "id": "Α-3030-0280",
      "lat": 34.68758,
      "lon": 33.04639,
      "type": "PUBLIC",
      "capacity": "100",
      "signNumber": "0280",
      "address": "LEOF. ARCH. MAKARIOU G 206 CHRYSALIA BUILDING,L/SOS  (AG. ZONE)",
      "district": "EPARCHIA LEMESOU",
      "subDistrict": "ANATOLIKES LEMESOU",
      "image": "Α-3030-0280-BUILDING-S.jpg"
    },
    {
      "id": "Α-3030-0290Α",
      "lat": 34.686531,
      "lon": 33.054949,
      "type": "PUBLIC",
      "capacity": "200",
      "signNumber": "0290",
      "address": "LEOF. ARCH. MAKARIOU G 213,MAKSIMOS PLAZA,L/SOS (NEAPOLE)",
      "district": "EPARCHIA LEMESOU",
      "subDistrict": "ANATOLIKES LEMESOU",
      "image": "Α-3030-0290Α-BUILDING-S.jpg"
    },
    {
      "id": "Α-3030-0290Β",
      "lat": 34.686531,
      "lon": 33.054949,
      "type": "PUBLIC",
      "capacity": "200",
      "signNumber": "0290",
      "address": "LEOF. ARCH. MAKARIOU G 213,MAKSIMOS PLAZA,L/SOS (NEAPOLE)",
      "district": "EPARCHIA LEMESOU",
      "subDistrict": "ANATOLIKES LEMESOU",
      "image": "Α-3030-0290Β-BUILDING-S.jpg"
    },
    {
      "id": "Α-3030-0290Γ",
      "lat": 34.686531,
      "lon": 33.054949,
      "type": "PUBLIC",
      "capacity": "200",
      "signNumber": "0290",
      "address": "LEOF. ARCH. MAKARIOU G 213,MAKSIMOS PLAZA,L/SOS (NEAPOLE)",
      "district": "EPARCHIA LEMESOU",
      "subDistrict": "ANATOLIKES LEMESOU",
      "image": "Α-3030-0290Γ-BUILDING-S.jpg"
    },
    {
      "id": "Α-3030-0290Δ",
      "lat": 34.686531,
      "lon": 33.054949,
      "type": "PUBLIC",
      "capacity": "200",
      "signNumber": "0290",
      "address": "LEOF. ARCH. MAKARIOU G 213,MAKSIMOS PLAZA,L/SOS (NEAPOLE)",
      "district": "EPARCHIA LEMESOU",
      "subDistrict": "ANATOLIKES LEMESOU",
      "image": "Α-3030-0290Δ-BUILDING-S.jpg"
    },
    {
      "id": "Α-3030-0290Ε",
      "lat": 34.686531,
      "lon": 33.054949,
      "type": "PUBLIC",
      "capacity": "200",
      "signNumber": "0290",
      "address": "LEOF. ARCH. MAKARIOU G 213,MAKSIMOS PLAZA MAKSIMOS PLAZA,L/SOS (NEAPOLE)",
      "district": "EPARCHIA LEMESOU",
      "subDistrict": "ANATOLIKES LEMESOU",
      "image": "Α-3030-290Ε-BUILDING-S.jpg"
    },
    {
      "id": "Α-3030-0015Α",
      "lat": 34.68752,
      "lon": 33.05022,
      "type": "PUBLIC",
      "capacity": "150",
      "signNumber": "0015",
      "address": "LEOF. ARCH. MAKARIOU G 197 GALA TOWER,L/SOS (AG. NEKTARIOS)",
      "district": "EPARCHIA LEMESOU",
      "subDistrict": "ANATOLIKES LEMESOU",
      "image": "Α-3030-0015Α-BUILDING-S.jpg"
    },
    {
      "id": "Α-3030-0015Β",
      "lat": 34.68752,
      "lon": 33.05022,
      "type": "PUBLIC",
      "capacity": "150",
      "signNumber": "0015",
      "address": "LEOF. ARCH. MAKARIOU G 197 GALA TOWER,L/SOS (AG. NEKTARIOS)",
      "district": "EPARCHIA LEMESOU",
      "subDistrict": "ANATOLIKES LEMESOU",
      "image": "Α-3030-0015Β-BUILDING-S.jpg"
    },
    {
      "id": "Α-3030-0025",
      "lat": 34.686875,
      "lon": 33.053305,
      "type": "PUBLIC",
      "capacity": "200",
      "signNumber": "0025",
      "address": "LEOF. ARCH. MAKARIOU G 209 & REGA FERAIOU, L/SOS (AG. NEKTARIOS)",
      "district": "EPARCHIA LEMESOU",
      "subDistrict": "ANATOLIKES LEMESOU",
      "image": "Α-3030-0025-BUILDING-S.jpg"
    },
    {
      "id": "Α-3030-0460Α",
      "lat": 34.68731,
      "lon": 33.0496,
      "type": "PUBLIC",
      "capacity": "190",
      "signNumber": "0460",
      "address": "LEOF. ARCH. MAKARIOU G 195 NEOKLEOUS HOUSE,L/SOS (AG. IOANNES)",
      "district": "EPARCHIA LEMESOU",
      "subDistrict": "ANATOLIKES LEMESOU",
      "image": "Α-3030-0460Α-BUILDING-S.jpg"
    },
    {
      "id": "Α-3030-0464Α",
      "lat": 34.68727,
      "lon": 33.05218,
      "type": "PUBLIC",
      "capacity": "70",
      "signNumber": "0464",
      "address": "LEOF. ARCH. MAKARIOU G 205 VICTORY HOUSE,L/SOS (AG. NEKTARIOS)",
      "district": "EPARCHIA LEMESOU",
      "subDistrict": "ANATOLIKES LEMESOU",
      "image": "Α-3030-0464Α-BUILDING-S.jpg"
    },
    {
      "id": "Α-3030-0464Β",
      "lat": 34.68727,
      "lon": 33.05218,
      "type": "PUBLIC",
      "capacity": "200",
      "signNumber": "0464",
      "address": "LEOF. ARCH. MAKARIOU G 205 VICTORY HOUSE,L/SOS (AG. NEKTARIOS)",
      "district": "EPARCHIA LEMESOU",
      "subDistrict": "ANATOLIKES LEMESOU",
      "image": "Α-3030-0464Β-BUILDING-S.jpg"
    },
    {
      "id": "Α-3030-0463",
      "lat": 34.68727,
      "lon": 33.05218,
      "type": "SHARED",
      "capacity": "70",
      "signNumber": "0463",
      "address": "LEOF. ARCH. MAKARIOU G 205 VICTORY HOUSE,L/SOS (AG. NEKTARIOS)",
      "district": "EPARCHIA LEMESOU",
      "subDistrict": "ANATOLIKES LEMESOU",
      "image": "Α-3030-0463-BUILDING-S.jpg"
    },
    {
      "id": "Α-3030-0143Γ",
      "lat": 34.686664,
      "lon": 33.050898,
      "type": "PUBLIC",
      "capacity": "150",
      "signNumber": "0143",
      "address": "THEKLAS LUSIOTE 4,CHARMONU CHAOUS CHARMONU CHAOUS,L/SOS  (AG. ZONE)",
      "district": "EPARCHIA LEMESOU",
      "subDistrict": "ANATOLIKES LEMESOU",
      "image": "Α-3030-0143Γ-BUILDING-S.jpg"
    },
    {
      "id": "Α-3031-0157Α",
      "lat": 34.684263,
      "lon": 33.044669,
      "type": "PUBLIC",
      "capacity": "65",
      "signNumber": "0157",
      "address": "ESIODOU 5, L/SOS  (AG. ZONE)",
      "district": "EPARCHIA LEMESOU",
      "subDistrict": "ANATOLIKES LEMESOU",
      "image": "Α-3031-0157Α-BUILDING-S.jpg"
    },
    {
      "id": "Α-3031-0157Β",
      "lat": 34.684263,
      "lon": 33.044669,
      "type": "PUBLIC",
      "capacity": "30",
      "signNumber": "0157",
      "address": "ESIODOU 5, L/SOS  (AG. ZONE)",
      "district": "EPARCHIA LEMESOU",
      "subDistrict": "ANATOLIKES LEMESOU",
      "image": "Α-3031-0157Β-BUILDING-S.jpg"
    },
    {
      "id": "Α-3031-0001Α",
      "lat": 34.683505,
      "lon": 33.046379,
      "type": "PUBLIC",
      "capacity": "200",
      "signNumber": "0001",
      "address": "GLADSTONOS 97 & ANTONE LOUKAIDE,SUNERGATIKO TAMIEUTERIO LEMESOU,L/SOS  (AG. ZONE)",
      "district": "EPARCHIA LEMESOU",
      "subDistrict": "ANATOLIKES LEMESOU",
      "image": "Α-3031-0001Α-BUILDING-S.jpg"
    },
    {
      "id": "Α-3031-0001Β",
      "lat": 34.683505,
      "lon": 33.046379,
      "type": "PUBLIC",
      "capacity": "200",
      "signNumber": "0001",
      "address": "GLADSTONOS 97 & ANTONE LOUKAIDE,SUNERGATIKO TAMIEUTERIO LEMESOU,L/SOS  (AG. ZONE)",
      "district": "EPARCHIA LEMESOU",
      "subDistrict": "ANATOLIKES LEMESOU",
      "image": "Α-3031-0001Β-BUILDING-S.jpg"
    },
    {
      "id": "Α-3031-0001Γ",
      "lat": 34.683505,
      "lon": 33.046379,
      "type": "PUBLIC",
      "capacity": "200",
      "signNumber": "0001",
      "address": "GLADSTONOS 97 & ANTONE LOUKAIDE,SUNERGATIKO TAMIEUTERIO LEMESOU,L/SOS  (AG. ZONE)",
      "district": "EPARCHIA LEMESOU",
      "subDistrict": "ANATOLIKES LEMESOU",
      "image": "Α-3031-0001Γ-BUILDING-S.jpg"
    },
    {
      "id": "Α-3031-0001Δ",
      "lat": 34.683505,
      "lon": 33.046379,
      "type": "PUBLIC",
      "capacity": "200",
      "signNumber": "0001",
      "address": "GLADSTONOS 97 & ANTONE LOUKAIDE,SUNERGATIKO TAMIEUTERIO LEMESOU,L/SOS  (AG. ZONE)",
      "district": "EPARCHIA LEMESOU",
      "subDistrict": "ANATOLIKES LEMESOU",
      "image": "Α-3031-0001Δ-BUILDING-S.jpg"
    },
    {
      "id": "Α-3032-0047",
      "lat": 34.682482,
      "lon": 33.047116,
      "type": "PUBLIC",
      "capacity": "150",
      "signNumber": "0047",
      "address": "GLADSTONOS 114 & KARAISKAKE, L/SOS (AG. TRIADA)",
      "district": "EPARCHIA LEMESOU",
      "subDistrict": "ANATOLIKES LEMESOU",
      "image": "Α-3032-0047-BUILDING-S.jpg"
    },
    {
      "id": "Α-3032-0048Α",
      "lat": 34.682416,
      "lon": 33.047516,
      "type": "PUBLIC",
      "capacity": "150",
      "signNumber": "0048",
      "address": "GEORGIOU KARAISKAKE 19,ROUSOS MPILNTINK,L/SOS (AG. TRIADA)",
      "district": "EPARCHIA LEMESOU",
      "subDistrict": "ANATOLIKES LEMESOU",
      "image": "Α-3032-0048Α-BUILDING-S.jpg"
    },
    {
      "id": "Α-3032-0048Β",
      "lat": 34.682416,
      "lon": 33.047516,
      "type": "PUBLIC",
      "capacity": "150",
      "signNumber": "0048",
      "address": "GEORGIOU KARAISKAKE 19,ROUSOS MPILNTINK ROUSOS MPILNTINK,L/SOS (AG. TRIADA)",
      "district": "EPARCHIA LEMESOU",
      "subDistrict": "ANATOLIKES LEMESOU",
      "image": "Α-3032-0048Β-BUILDING-S.jpg"
    },
    {
      "id": "Α-3032-0049Α",
      "lat": 34.682394,
      "lon": 33.047714,
      "type": "PUBLIC",
      "capacity": "105",
      "signNumber": "0049",
      "address": "GEORGIOU KARAISKAKE 36-38 KANIKA ALEKSANTER SENTER,L/SOS (AG. TRIADA)",
      "district": "EPARCHIA LEMESOU",
      "subDistrict": "ANATOLIKES LEMESOU",
      "image": "Α-3032-0049Α-BUILDING-S.jpg"
    },
    {
      "id": "Α-3032-0052Α",
      "lat": 34.682799,
      "lon": 33.048566,
      "type": "PUBLIC",
      "capacity": "110",
      "signNumber": "0052",
      "address": "FILOKUPROU 3 (ZENIA - MARINA), L/SOS (AG. TRIADA)",
      "district": "EPARCHIA LEMESOU",
      "subDistrict": "ANATOLIKES LEMESOU",
      "image": "Α-3032-0052Α-BUILDING-S.jpg"
    },
    {
      "id": "Α-3032-0137",
      "lat": 34.683656,
      "lon": 33.050043,
      "type": "PUBLIC",
      "capacity": "60",
      "signNumber": "0137",
      "address": "GLADSTONOS 119-121, L/SOS  (AG. ZONE)",
      "district": "EPARCHIA LEMESOU",
      "subDistrict": "ANATOLIKES LEMESOU",
      "image": "Α-3032-0137-BUILDING-S.jpg"
    },
    {
      "id": "Α-3032-0148Α",
      "lat": 34.683047,
      "lon": 33.048136,
      "type": "PUBLIC",
      "capacity": "105",
      "signNumber": "0148",
      "address": "GLADSTONOS 120 & FILOKUPROU,FOLOUNE CHAOUS,L/SOS (AG. TRIADA)",
      "district": "EPARCHIA LEMESOU",
      "subDistrict": "ANATOLIKES LEMESOU",
      "image": "Α-3032-0148Α-BUILDING-S.jpg"
    },
    {
      "id": "Α-3032-0052Β",
      "lat": 34.682799,
      "lon": 33.048566,
      "type": "PUBLIC",
      "capacity": "110",
      "signNumber": "0052",
      "address": "FILOKUPROU 3 (ZENIA - MARINA), L/SOS (AG. TRIADA)",
      "district": "EPARCHIA LEMESOU",
      "subDistrict": "ANATOLIKES LEMESOU",
      "image": "Α-3032-0052Β-BUILDING-S.jpg"
    },
    {
      "id": "Α-3032-9619Α",
      "lat": 34.680785,
      "lon": 33.049199,
      "type": "PUBLIC",
      "capacity": "125",
      "signNumber": "9619",
      "address": "GEORGIOU KARAISKAKE 6, PRAES GOUOTER CHAOUS KOUPERS,L/SOS (AG. TRIADA)",
      "district": "EPARCHIA LEMESOU",
      "subDistrict": "ANATOLIKES LEMESOU",
      "image": "Α-3032-9619Α-BUILDING-S.jpg"
    },
    {
      "id": "Α-3032-9619Β",
      "lat": 34.680785,
      "lon": 33.049199,
      "type": "PUBLIC",
      "capacity": "125",
      "signNumber": "9619",
      "address": "GEORGIOU KARAISKAKE 6, PRAES GOUOTER CHAOUS KOUPERS,L/SOS (AG. TRIADA)",
      "district": "EPARCHIA LEMESOU",
      "subDistrict": "ANATOLIKES LEMESOU",
      "image": "Α-3032-9619Β-BUILDING-S.jpg"
    },
    {
      "id": "Α-3032-0046Α",
      "lat": 34.68375,
      "lon": 33.050575,
      "type": "PUBLIC",
      "capacity": "125",
      "signNumber": "0046",
      "address": "GLADSTONOS 131,KERMIA KORT,L/SOS  (AG. ZONE)",
      "district": "EPARCHIA LEMESOU",
      "subDistrict": "ANATOLIKES LEMESOU",
      "image": "Α-3032-0046Α-BUILDING-S.jpg"
    },
    {
      "id": "Α-3032-0046Β",
      "lat": 34.68375,
      "lon": 33.050575,
      "type": "PUBLIC",
      "capacity": "125",
      "signNumber": "0046",
      "address": "GLADSTONOS 131,KERMIA KORT KERMIA KORT,L/SOS  (AG. ZONE)",
      "district": "EPARCHIA LEMESOU",
      "subDistrict": "ANATOLIKES LEMESOU",
      "image": "Α-3032-0046Β-BUILDING-S.jpg"
    },
    {
      "id": "Α-3032-0148Β",
      "lat": 34.683047,
      "lon": 33.048136,
      "type": "PUBLIC",
      "capacity": "150",
      "signNumber": "0048",
      "address": "GEORGIOU KARAISKAKE 19,ROUSOS MPILNTINK ROUSOS MPILNTINK,L/SOS (AG. TRIADA)",
      "district": "EPARCHIA LEMESOU",
      "subDistrict": "ANATOLIKES LEMESOU",
      "image": "Α-3032-0048Β-BUILDING-S.jpg"
    },
    {
      "id": "Α-3032-0049Α",
      "lat": 34.682394,
      "lon": 33.047714,
      "type": "PUBLIC",
      "capacity": "105",
      "signNumber": "0049",
      "address": "GEORGIOU KARAISKAKE 36-38 KANIKA ALEKSANTER SENTER,L/SOS (AG. TRIADA)",
      "district": "EPARCHIA LEMESOU",
      "subDistrict": "ANATOLIKES LEMESOU",
      "image": "Α-3032-0049Α-BUILDING-S.jpg"
    },
    {
      "id": "Α-3032-0052Α",
      "lat": 34.682799,
      "lon": 33.048566,
      "type": "PUBLIC",
      "capacity": "110",
      "signNumber": "0052",
      "address": "FILOKUPROU 3 (ZENIA - MARINA), L/SOS (AG. TRIADA)",
      "district": "EPARCHIA LEMESOU",
      "subDistrict": "ANATOLIKES LEMESOU",
      "image": "Α-3032-0052Α-BUILDING-S.jpg"
    },
    {
      "id": "Α-3032-0137",
      "lat": 34.683656,
      "lon": 33.050043,
      "type": "PUBLIC",
      "capacity": "60",
      "signNumber": "0137",
      "address": "GLADSTONOS 119-121, L/SOS  (AG. ZONE)",
      "district": "EPARCHIA LEMESOU",
      "subDistrict": "ANATOLIKES LEMESOU",
      "image": "Α-3032-0137-BUILDING-S.jpg"
    },
    {
      "id": "Α-3032-0148Α",
      "lat": 34.683047,
      "lon": 33.048136,
      "type": "PUBLIC",
      "capacity": "105",
      "signNumber": "0148",
      "address": "GLADSTONOS 120 & FILOKUPROU,FOLOUNE CHAOUS FOLOUNE CHAOUS,L/SOS (AG. TRIADA)",
      "district": "EPARCHIA LEMESOU",
      "subDistrict": "ANATOLIKES LEMESOU",
      "image": "Α-3032-0148Α-BUILDING-S.jpg"
    },
    {
      "id": "Α-3032-0052Β",
      "lat": 34.682799,
      "lon": 33.048566,
      "type": "PUBLIC",
      "capacity": "110",
      "signNumber": "0052",
      "address": "FILOKUPROU 3 (ZENIA - MARINA), L/SOS (AG. TRIADA)",
      "district": "EPARCHIA LEMESOU",
      "subDistrict": "ANATOLIKES LEMESOU",
      "image": "Α-3032-0052Β-BUILDING-S.jpg"
    },
    {
      "id": "Α-3032-9619Α",
      "lat": 34.680785,
      "lon": 33.049199,
      "type": "PUBLIC",
      "capacity": "125",
      "signNumber": "9619",
      "address": "GEORGIOU KARAISKAKE 6, PRAES GOUOTER CHAOUS KOUPERS PRAES GOUOTER CHAOUS KOUPERS,L/SOS (AG. TRIADA)",
      "district": "EPARCHIA LEMESOU",
      "subDistrict": "ANATOLIKES LEMESOU",
      "image": "Α-3032-9619Α-BUILDING-S.jpg"
    },
    {
      "id": "Α-3032-9619Β",
      "lat": 34.680785,
      "lon": 33.049199,
      "type": "PUBLIC",
      "capacity": "125",
      "signNumber": "9619",
      "address": "GEORGIOU KARAISKAKE 6, PRAES GOUOTER CHAOUS KOUPERS,L/SOS (AG. TRIADA)",
      "district": "EPARCHIA LEMESOU",
      "subDistrict": "ANATOLIKES LEMESOU",
      "image": "Α-3032-9619Β-BUILDING-S.jpg"
    },
    {
      "id": "Α-3032-0046Α",
      "lat": 34.68375,
      "lon": 33.050575,
      "type": "PUBLIC",
      "capacity": "125",
      "signNumber": "0046",
      "address": "GLADSTONOS 131,KERMIA KORT,L/SOS  (AG. ZONE)",
      "district": "EPARCHIA LEMESOU",
      "subDistrict": "ANATOLIKES LEMESOU",
      "image": "Α-3032-0046Α-BUILDING-S.jpg"
    },
    {
      "id": "Α-3032-0046Β",
      "lat": 34.68375,
      "lon": 33.050575,
      "type": "PUBLIC",
      "capacity": "125",
      "signNumber": "0046",
      "address": "GLADSTONOS 131,KERMIA KORT,L/SOS  (AG. ZONE)",
      "district": "EPARCHIA LEMESOU",
      "subDistrict": "ANATOLIKES LEMESOU",
      "image": "Α-3032-0046Β-BUILDING-S.jpg"
    },
    {
      "id": "Α-3032-0148Β",
      "lat": 34.683047,
      "lon": 33.048136,
      "type": "PUBLIC",
      "capacity": "105",
      "signNumber": "0148",
      "address": "GLADSTONOS 120 & FILOKUPROU,FOLOUNE CHAOUS,L/SOS (AG. TRIADA)",
      "district": "EPARCHIA LEMESOU",
      "subDistrict": "ANATOLIKES LEMESOU",
      "image": "Α-3032-0148Β-BUILDING-S.jpg"
    },
    {
      "id": "Α-3032-0049Β",
      "lat": 34.682394,
      "lon": 33.047714,
      "type": "PUBLIC",
      "capacity": "110",
      "signNumber": "0049",
      "address": "GEORGIOU KARAISKAKE 36-38 KANIKA ALEKSANTER SENTER,L/SOS (AG. TRIADA)",
      "district": "EPARCHIA LEMESOU",
      "subDistrict": "ANATOLIKES LEMESOU",
      "image": "Α-3032-0049Β-BUILDING-S.jpg"
    },
    {
      "id": "Α-3035-0165Β",
      "lat": 34.678955,
      "lon": 33.051246,
      "type": "PUBLIC",
      "capacity": "100",
      "signNumber": "0165",
      "address": "28es OKTOBRIOU & AIMILIOU CHOURMOZIOU,LOFITES,L/SOS (AG. TRIADA)",
      "district": "EPARCHIA LEMESOU",
      "subDistrict": "ANATOLIKES LEMESOU",
      "image": "Α-3035-0165Β-BUILDING-S.jpg"
    },
    {
      "id": "Α-3035-0165Α",
      "lat": 34.678955,
      "lon": 33.051246,
      "type": "PUBLIC",
      "capacity": "200",
      "signNumber": "0165",
      "address": "28es OKTOBRIOU & AIMILIOU CHOURMOZIOU,LOFITES,L/SOS (AG. TRIADA)",
      "district": "EPARCHIA LEMESOU",
      "subDistrict": "ANATOLIKES LEMESOU",
      "image": "Α-3035-0165Α-BUILDING-S.jpg"
    },
    {
      "id": "Α-3035-0155",
      "lat": 34.682597,
      "lon": 33.051465,
      "type": "PUBLIC",
      "capacity": "100",
      "signNumber": "0155",
      "address": "AG. ANDREOU 353 NTOMOKAZA KORT,L/SOS (AG. TRIADA)",
      "district": "EPARCHIA LEMESOU",
      "subDistrict": "ANATOLIKES LEMESOU",
      "image": "Α-3035-0155-BUILDING-S.jpg"
    },
    {
      "id": "Α-3035-0160Α",
      "lat": 34.683376,
      "lon": 33.053244,
      "type": "PUBLIC",
      "capacity": "115",
      "signNumber": "0160",
      "address": "OLUMPION 23 LIPRA TAOUER,L/SOS (AG. TRIADA)",
      "district": "EPARCHIA LEMESOU",
      "subDistrict": "ANATOLIKES LEMESOU",
      "image": "Α-3035-0160Α-BUILDING-S.jpg"
    },
    {
      "id": "Α-3035-0160Β",
      "lat": 34.683376,
      "lon": 33.053244,
      "type": "PUBLIC",
      "capacity": "115",
      "signNumber": "0160",
      "address": "OLUMPION 23 LIPRA TAOUER,L/SOS (AG. TRIADA)",
      "district": "EPARCHIA LEMESOU",
      "subDistrict": "ANATOLIKES LEMESOU",
      "image": "Α-3035-0160Β-BUILDING-S.jpg"
    },
    {
      "id": "Α-3036-0135Α",
      "lat": 34.674159,
      "lon": 33.04301,
      "type": "PUBLIC",
      "capacity": "125",
      "signNumber": "0135",
      "address": "KITIOU KUPRIANOU 15, L/SOS (AG. NAPA)",
      "district": "EPARCHIA LEMESOU",
      "subDistrict": "ANATOLIKES LEMESOU",
      "image": "Α-3036-0135Α-BUILDING-S.jpg"
    },
    {
      "id": "Α-3036-0252",
      "lat": 34.674184,
      "lon": 33.044543,
      "type": "PUBLIC",
      "capacity": "40",
      "signNumber": "0252",
      "address": "AG. ANDREOU 59, L/SOS (AG. NAPA)",
      "district": "EPARCHIA LEMESOU",
      "subDistrict": "ANATOLIKES LEMESOU",
      "image": "Α-3036-0252-BUILDING-S.jpg"
    },
    {
      "id": "Α-3036-0135Β",
      "lat": 34.674159,
      "lon": 33.04301,
      "type": "PUBLIC",
      "capacity": "125",
      "signNumber": "0135",
      "address": "KITIOU KUPRIANOU 15, L/SOS (AG. NAPA)",
      "district": "EPARCHIA LEMESOU",
      "subDistrict": "ANATOLIKES LEMESOU",
      "image": "Α-3036-0135Β-BUILDING-S.jpg"
    },
    {
      "id": "Α-3040-0138",
      "lat": 34.67993,
      "lon": 33.04454,
      "type": "PUBLIC",
      "capacity": "60",
      "signNumber": "0138",
      "address": "EPEIROU 12, L/SOS (AG. TRIADA)",
      "district": "EPARCHIA LEMESOU",
      "subDistrict": "ANATOLIKES LEMESOU",
      "image": "Α-3040-0138-BUILDING-S.jpg"
    },
    {
      "id": "Α-3040-0169Β",
      "lat": 34.677495,
      "lon": 33.044657,
      "type": "PUBLIC",
      "capacity": "150",
      "signNumber": "0169",
      "address": "ANEKSARTESIAS 117 HIGH STREET,L/SOS (KATHOLIKE)",
      "district": "EPARCHIA LEMESOU",
      "subDistrict": "ANATOLIKES LEMESOU",
      "image": "Α-3040-0169Β-BUILDING-S.jpg"
    },
    {
      "id": "Α-3040-0169Α",
      "lat": 34.677495,
      "lon": 33.044657,
      "type": "PUBLIC",
      "capacity": "150",
      "signNumber": "0169",
      "address": "ANEKSARTESIAS 117 HIGH STREET,L/SOS (KATHOLIKE)",
      "district": "EPARCHIA LEMESOU",
      "subDistrict": "ANATOLIKES LEMESOU",
      "image": "Α-3040-0169Α-BUILDING-S.jpg"
    },
    {
      "id": "Α-3040-9614Α",
      "lat": 34.67982,
      "lon": 33.0437,
      "type": "PUBLIC",
      "capacity": "30",
      "signNumber": "9614",
      "address": "ANEKSARTESIAS 167 MEGARON ARGUROPOULOS,L/SOS (KATHOLIKE)",
      "district": "EPARCHIA LEMESOU",
      "subDistrict": "ANATOLIKES LEMESOU",
      "image": "Α-3040-9614Α-BUILDING-S.jpg"
    },
    {
      "id": "Α-3040-9614Β",
      "lat": 34.67982,
      "lon": 33.0437,
      "type": "PUBLIC",
      "capacity": "30",
      "signNumber": "9614",
      "address": "ANEKSARTESIAS 167 MEGARON ARGUROPOULOS,L/SOS (KATHOLIKE)",
      "district": "EPARCHIA LEMESOU",
      "subDistrict": "ANATOLIKES LEMESOU",
      "image": "Α-3040-9614Β-BUILDING-S.jpg"
    },
    {
      "id": "Α-3041-0045Α",
      "lat": 34.681141,
      "lon": 33.044587,
      "type": "PUBLIC",
      "capacity": "125",
      "signNumber": "0045",
      "address": "GLADSTONOS 69 AKROPOLE SENTER,L/SOS  (AG. ZONE)",
      "district": "EPARCHIA LEMESOU",
      "subDistrict": "ANATOLIKES LEMESOU",
      "image": "Α-3041-0045Α-BUILDING-S.jpg"
    },
    {
      "id": "Α-3041-0045Β",
      "lat": 34.681141,
      "lon": 33.044587,
      "type": "PUBLIC",
      "capacity": "125",
      "signNumber": "0045",
      "address": "GLADSTONOS 69 AKROPOLE SENTER,L/SOS  (AG. ZONE)",
      "district": "EPARCHIA LEMESOU",
      "subDistrict": "ANATOLIKES LEMESOU",
      "image": "Α-3041-0045Β-BUILDING-S.jpg"
    },
    {
      "id": "Α-3041-0142",
      "lat": 34.680971,
      "lon": 33.044038,
      "type": "PUBLIC",
      "capacity": "130",
      "signNumber": "0142",
      "address": "GLADSTONOS 59, L/SOS  (AG. ZONE)",
      "district": "EPARCHIA LEMESOU",
      "subDistrict": "ANATOLIKES LEMESOU",
      "image": "Α-3041-0142-BUILDING-S.jpg"
    },
    {
      "id": "Α-3041-0149Α",
      "lat": 34.681388,
      "lon": 33.045207,
      "type": "PUBLIC",
      "capacity": "110",
      "signNumber": "0149",
      "address": "GLADSTONOS & FOTE KOLAKIDE 52 ELLENIKE TRAPEZA,L/SOS  (AG. ZONE)",
      "district": "EPARCHIA LEMESOU",
      "subDistrict": "ANATOLIKES LEMESOU",
      "image": "Α-3041-0149Α-BUILDING-S.jpg"
    },
    {
      "id": "Α-3041-9611",
      "lat": 34.675689,
      "lon": 33.043524,
      "type": "PUBLIC",
      "capacity": "100",
      "signNumber": "9611",
      "address": "ATHENON 29, L/SOS (AG. NAPA)",
      "district": "EPARCHIA LEMESOU",
      "subDistrict": "ANATOLIKES LEMESOU",
      "image": "Α-3041-9611-BUILDING-S.jpg"
    },
    {
      "id": "Α-3041-0149Β",
      "lat": 34.681388,
      "lon": 33.045207,
      "type": "PUBLIC",
      "capacity": "110",
      "signNumber": "0149",
      "address": "GLADSTONOS & FOTE KOLAKIDE 52 ELLENIKE TRAPEZA,L/SOS  (AG. ZONE)",
      "district": "EPARCHIA LEMESOU",
      "subDistrict": "ANATOLIKES LEMESOU",
      "image": "Α-3041-0149Β-BUILDING-S.jpg"
    },
    {
      "id": "Α-3070-0365Α",
      "lat": 34.6904,
      "lon": 33.02003,
      "type": "PUBLIC",
      "capacity": "110",
      "signNumber": "0365",
      "address": "LEOF. SPUROU KUPRIANOU 14, L/SOS (AG. GEORGIOS CHAB.)",
      "district": "EPARCHIA LEMESOU",
      "subDistrict": "ANATOLIKES LEMESOU",
      "image": "Α-3070-0365Α-BUILDING-S.jpg"
    },
    {
      "id": "Α-3070-0365Β",
      "lat": 34.6904,
      "lon": 33.02003,
      "type": "PUBLIC",
      "capacity": "110",
      "signNumber": "0365",
      "address": "LEOF. SPUROU KUPRIANOU 14, L/SOS (AG. GEORGIOS CHAB.)",
      "district": "EPARCHIA LEMESOU",
      "subDistrict": "ANATOLIKES LEMESOU",
      "image": "Α-3070-0365Β-BUILDING-S.jpg"
    },
    {
      "id": "Α-3070-0295",
      "lat": 34.6922,
      "lon": 33.01605,
      "type": "PUBLIC",
      "capacity": "130",
      "signNumber": "0295",
      "address": "NIKOU KAI DESPOINAS PATTICHE 108 MEGARO KONSTANTINIDE,L/SOS (AG. GEORGIOS CHAB.)",
      "district": "EPARCHIA LEMESOU",
      "subDistrict": "ANATOLIKES LEMESOU",
      "image": "Α-3070-0295-BUILDING-S.jpg"
    },
    {
      "id": "Α-3070-0295",
      "lat": 34.6922,
      "lon": 33.01605,
      "type": "PUBLIC",
      "capacity": "130",
      "signNumber": "0295",
      "address": "NIKOU KAI DESPOINAS PATTICHE 108 MEGARO KONSTANTINIDE,L/SOS (AG. GEORGIOS CHAB.)",
      "district": "EPARCHIA LEMESOU",
      "subDistrict": "ANATOLIKES LEMESOU",
      "image": "Α-3070-0295-BUILDING-S.jpg"
    },
    {
      "id": "Α-3070-0365Β",
      "lat": 34.6904,
      "lon": 33.02003,
      "type": "PUBLIC",
      "capacity": "110",
      "signNumber": "0365",
      "address": "LEOF. SPUROU KUPRIANOU 14, L/SOS (AG. GEORGIOS CHAB.)",
      "district": "EPARCHIA LEMESOU",
      "subDistrict": "ANATOLIKES LEMESOU",
      "image": "Α-3070-0365Β-BUILDING-S.jpg"
    },
    {
      "id": "Α-3070-0199",
      "lat": 34.69031,
      "lon": 33.01933,
      "type": "PUBLIC",
      "capacity": "130",
      "signNumber": "0199",
      "address": "LEOF. SPUROU KUPRIANOU 11A, L/SOS (AG. GEORGIOS CHAB.)",
      "district": "EPARCHIA LEMESOU",
      "subDistrict": "ANATOLIKES LEMESOU",
      "image": "Α-3070-0199-BUILDING-S.jpg"
    },
    {
      "id": "Α-3070-0402",
      "lat": 34.69115,
      "lon": 33.0215,
      "type": "PUBLIC",
      "capacity": "170",
      "signNumber": "0402",
      "address": "LEOF. SPUROU KUPRIANOU 24, L/SOS (AG. GEORGIOS CHAB.)",
      "district": "EPARCHIA LEMESOU",
      "subDistrict": "ANATOLIKES LEMESOU",
      "image": "Α-3070-0402-BUILDING-S.jpg"
    },
    {
      "id": "Α-3070-0414",
      "lat": 34.68965,
      "lon": 33.01846,
      "type": "PUBLIC",
      "capacity": "200",
      "signNumber": "0414",
      "address": "LEOF. SPUROU KUPRIANOU 4, L/SOS (AG. GEORGIOS CHAB.)",
      "district": "EPARCHIA LEMESOU",
      "subDistrict": "ANATOLIKES LEMESOU",
      "image": "Α-3070-0414-BUILDING-S.jpg"
    },
    {
      "id": "Α-3070-0415",
      "lat": 34.68995,
      "lon": 33.01933,
      "type": "PUBLIC",
      "capacity": "100",
      "signNumber": "0415",
      "address": "LEOF. SPUROU KUPRIANOU 8 MSC HOUSE,L/SOS (AG. GEORGIOS CHAB.)",
      "district": "EPARCHIA LEMESOU",
      "subDistrict": "ANATOLIKES LEMESOU",
      "image": "Α-3070-0415-BUILDING-S.jpg"
    },
    {
      "id": "Α-3070-0428",
      "lat": 34.689413,
      "lon": 33.018342,
      "type": "PUBLIC",
      "capacity": "100",
      "signNumber": "0428",
      "address": "NIKOU KAI DESPOINAS PATTICHE 84, L/SOS (AG. GEORGIOS CHAB.)",
      "district": "EPARCHIA LEMESOU",
      "subDistrict": "ANATOLIKES LEMESOU",
      "image": "Α-3070-0428-BUILDING-S.jpg"
    },
    {
      "id": "Α-3070-0434",
      "lat": 34.691,
      "lon": 33.02128,
      "type": "PUBLIC",
      "capacity": "40",
      "signNumber": "0434",
      "address": "LEOF. SPUROU KUPRIANOU 24, L/SOS (AG. GEORGIOS CHAB.)",
      "district": "EPARCHIA LEMESOU",
      "subDistrict": "ANATOLIKES LEMESOU",
      "image": "Α-3070-0434-BUILDING-S.jpg"
    },
    {
      "id": "Α-3071-0363",
      "lat": 34.68778,
      "lon": 33.02188,
      "type": "PUBLIC",
      "capacity": "50",
      "signNumber": "0363",
      "address": "ANNES MARIAS 7, L/SOS (AG. GEORGIOS CHAB.)",
      "district": "EPARCHIA LEMESOU",
      "subDistrict": "ANATOLIKES LEMESOU",
      "image": "Α-3071-0363-BUILDING-S.jpg"
    },
    {
      "id": "Α-3071-0433Α",
      "lat": 34.685335,
      "lon": 33.025392,
      "type": "PUBLIC",
      "capacity": "70",
      "signNumber": "0433",
      "address": "NIKOU KAI DESPOINAS PATTICHE & SPELION, L/SOS (AG. GEORGIOS CHAB.)",
      "district": "EPARCHIA LEMESOU",
      "subDistrict": "ANATOLIKES LEMESOU",
      "image": "Α-3071-0433Α-BUILDING-S.jpg"
    },
    {
      "id": "Α-3071-0433Β",
      "lat": 34.685335,
      "lon": 33.025392,
      "type": "PUBLIC",
      "capacity": "60",
      "signNumber": "0433",
      "address": "NIKOU KAI DESPOINAS PATTICHE & SPELION, L/SOS (AG. GEORGIOS CHAB.)",
      "district": "EPARCHIA LEMESOU",
      "subDistrict": "ANATOLIKES LEMESOU",
      "image": "Α-3071-0433Β-BUILDING-S.jpg"
    },
    {
      "id": "Α-3075-0370",
      "lat": 34.687687,
      "lon": 33.02855,
      "type": "PUBLIC",
      "capacity": "40",
      "signNumber": "0370",
      "address": "LEKORPOUZIE 27, L/SOS( AP. PETROU&PAULOU)",
      "district": "EPARCHIA LEMESOU",
      "subDistrict": "ANATOLIKES LEMESOU",
      "image": "Α-3075-0370-BUILDING-S.jpg"
    },
    {
      "id": "Α-3075-0171",
      "lat": 34.690761,
      "lon": 33.030856,
      "type": "PUBLIC",
      "capacity": "200",
      "signNumber": "0171",
      "address": "GKROPIOUS, IKTINOU, KALLIKRATE FYSKO LOTUS PLAZA,L/SOS( AP. PETROU&PAULOU)",
      "district": "EPARCHIA LEMESOU",
      "subDistrict": "ANATOLIKES LEMESOU",
      "image": "Α-3075-0171-BUILDING-S.jpg"
    },
    {
      "id": "Α-3075-0172",
      "lat": 34.690761,
      "lon": 33.030856,
      "type": "PUBLIC",
      "capacity": "200",
      "signNumber": "0172",
      "address": "GKROPIOUS, IKTINOU, KALLIKRATE FYSKO LOTUS PLAZA,L/SOS( AP. PETROU&PAULOU)",
      "district": "EPARCHIA LEMESOU",
      "subDistrict": "ANATOLIKES LEMESOU",
      "image": "Α-3075-0172-BUILDING-S.jpg"
    },
    {
      "id": "Α-3075-0173",
      "lat": 34.690761,
      "lon": 33.030856,
      "type": "PUBLIC",
      "capacity": "200",
      "signNumber": "0173",
      "address": "GKROPIOUS, IKTINOU, KALLIKRATE FYSKO LOTUS PLAZA,L/SOS( AP. PETROU&PAULOU)",
      "district": "EPARCHIA LEMESOU",
      "subDistrict": "ANATOLIKES LEMESOU",
      "image": "Α-3075-0173-BUILDING-S.jpg"
    },
    {
      "id": "Α-3075-0369Α",
      "lat": 34.68668,
      "lon": 33.02782,
      "type": "PUBLIC",
      "capacity": "70",
      "signNumber": "0369",
      "address": "ONESILOU 13, L/SOS( AP. PETROU&PAULOU)",
      "district": "EPARCHIA LEMESOU",
      "subDistrict": "ANATOLIKES LEMESOU",
      "image": "Α-3075-0369Α-BUILDING-S.jpg"
    },
    {
      "id": "Α-3075-0368Α",
      "lat": 34.686944,
      "lon": 33.027653,
      "type": "PUBLIC",
      "capacity": "70",
      "signNumber": "0368",
      "address": "LEKORPOUZIE 16, L/SOS( AP. PETROU&PAULOU)",
      "district": "EPARCHIA LEMESOU",
      "subDistrict": "ANATOLIKES LEMESOU",
      "image": "Α-3075-0368Α-BUILDING-S.jpg"
    },
    {
      "id": "Α-3075-0368Β",
      "lat": 34.686944,
      "lon": 33.027653,
      "type": "PUBLIC",
      "capacity": "50",
      "signNumber": "0368",
      "address": "LEKORPOUZIE 16, L/SOS( AP. PETROU&PAULOU)",
      "district": "EPARCHIA LEMESOU",
      "subDistrict": "ANATOLIKES LEMESOU",
      "image": "Α-3075-0368Β-BUILDING-S.jpg"
    },
    {
      "id": "Α-3075-0369Β",
      "lat": 34.68668,
      "lon": 33.02782,
      "type": "PUBLIC",
      "capacity": "40",
      "signNumber": "0369",
      "address": "ONESILOU 13, L/SOS( AP. PETROU&PAULOU)",
      "district": "EPARCHIA LEMESOU",
      "subDistrict": "ANATOLIKES LEMESOU",
      "image": "Α-3075-0369Β-BUILDING-S.jpg"
    },
    {
      "id": "Α-3075-0027",
      "lat": 34.68885,
      "lon": 33.03192,
      "type": "PUBLIC",
      "capacity": "150",
      "signNumber": "0027",
      "address": "POLUDEUKE & PETROU TSIROU CHRUSOSTOMOS TAOUER,L/SOS( AP. PETROU&PAULOU)",
      "district": "EPARCHIA LEMESOU",
      "subDistrict": "ANATOLIKES LEMESOU",
      "image": "Α-3075-0027-BUILDING-S.jpg"
    },
    {
      "id": "Α-3075-0028",
      "lat": 34.689005,
      "lon": 33.02446,
      "type": "PUBLIC",
      "capacity": "180",
      "signNumber": "0028",
      "address": "BASILEOS KONSTANTINOU 54 ERIMOUDIS COURT,L/SOS( AP. PETROU&PAULOU)",
      "district": "EPARCHIA LEMESOU",
      "subDistrict": "ANATOLIKES LEMESOU",
      "image": "Α-3075-0028-BUILDING-S.jpg"
    },
    {
      "id": "Α-3075-0210",
      "lat": 34.6868,
      "lon": 33.031165,
      "type": "PUBLIC",
      "capacity": "100",
      "signNumber": "0210",
      "address": "PANAGE LAPA 29, L/SOS( AP. PETROU&PAULOU)",
      "district": "EPARCHIA LEMESOU",
      "subDistrict": "ANATOLIKES LEMESOU",
      "image": "Α-3075-0210-BUILDING-S.jpg"
    },
    {
      "id": "Α-3075-0410",
      "lat": 34.685311,
      "lon": 33.032295,
      "type": "PUBLIC",
      "capacity": "200",
      "signNumber": "0410",
      "address": "LEOF. ARCH. MAKARIOU G & PETROU TSIROU,MARFIN LAIKE MARFIN LAIKE TRAPEZA,L/SOS( AP. PETROU&PAULOU)",
      "district": "EPARCHIA LEMESOU",
      "subDistrict": "ANATOLIKES LEMESOU",
      "image": "Α-3075-0410-BUILDING-S.jpg"
    },
    {
      "id": "Α-3075-0411",
      "lat": 34.685311,
      "lon": 33.032295,
      "type": "PUBLIC",
      "capacity": "200",
      "signNumber": "0411",
      "address": "LEOF. ARCH. MAKARIOU G & PETROU TSIROU,MARFIN LAIKE MARFIN LAIKE TRAPEZA,L/SOS( AP. PETROU&PAULOU)",
      "district": "EPARCHIA LEMESOU",
      "subDistrict": "ANATOLIKES LEMESOU",
      "image": "Α-3075-0411-BUILDING-S.jpg"
    },
    {
      "id": "Α-3075-0417",
      "lat": 34.685362,
      "lon": 33.031575,
      "type": "PUBLIC",
      "capacity": "100",
      "signNumber": "0417",
      "address": "SISUFOU 29, L/SOS( AP. PETROU&PAULOU)",
      "district": "EPARCHIA LEMESOU",
      "subDistrict": "ANATOLIKES LEMESOU",
      "image": "Α-3075-0417-BUILDING-S.jpg"
    },
    {
      "id": "Α-3075-0419Α",
      "lat": 34.6871,
      "lon": 33.02554,
      "type": "PUBLIC",
      "capacity": "60",
      "signNumber": "0419",
      "address": "BASILEOS KONSTANTINOU 40, L/SOS( AP. PETROU&PAULOU)",
      "district": "EPARCHIA LEMESOU",
      "subDistrict": "ANATOLIKES LEMESOU",
      "image": "Α-3075-0419Α-BUILDING-S.jpg"
    },
    {
      "id": "Α-3075-0419Β",
      "lat": 34.6871,
      "lon": 33.02554,
      "type": "PUBLIC",
      "capacity": "10",
      "signNumber": "0419",
      "address": "BASILEOS KONSTANTINOU 40, L/SOS( AP. PETROU&PAULOU)",
      "district": "EPARCHIA LEMESOU",
      "subDistrict": "ANATOLIKES LEMESOU",
      "image": "Α-3075-0419Β-BUILDING-S.jpg"
    },
    {
      "id": "Α-3075-0453Α",
      "lat": 34.687,
      "lon": 33.02524,
      "type": "PUBLIC",
      "capacity": "200",
      "signNumber": "0453",
      "address": "BASILEOS KONSTANTINOU 27, L/SOS( AP. PETROU&PAULOU)",
      "district": "EPARCHIA LEMESOU",
      "subDistrict": "ANATOLIKES LEMESOU",
      "image": "Α-3075-0453Α-BUILDING-S.jpg"
    },
    {
      "id": "Α-3075-0453Β",
      "lat": 34.687,
      "lon": 33.02524,
      "type": "PUBLIC",
      "capacity": "200",
      "signNumber": "0453",
      "address": "BASILEOS KONSTANTINOU 27, L/SOS( AP. PETROU&PAULOU)",
      "district": "EPARCHIA LEMESOU",
      "subDistrict": "ANATOLIKES LEMESOU",
      "image": "Α-3075-0453Β-BUILDING-S.jpg"
    },
    {
      "id": "Α-3075-0454",
      "lat": 34.68747,
      "lon": 33.02504,
      "type": "PUBLIC",
      "capacity": "200",
      "signNumber": "0454",
      "address": "BASILEOS KONSTANTINOU 29, L/SOS( AP. PETROU&PAULOU)",
      "district": "EPARCHIA LEMESOU",
      "subDistrict": "ANATOLIKES LEMESOU",
      "image": "Α-3075-0454-BUILDING-S.jpg"
    },
    {
      "id": "Α-3076-0175",
      "lat": 34.691227,
      "lon": 33.023549,
      "type": "PUBLIC",
      "capacity": "200",
      "signNumber": "0175",
      "address": "BASILEOS KONSTANTINOU 76 KLINIKE AGIOI ANARGUROI,L/SOS (AG. GEORGIOS CHAB.)",
      "district": "EPARCHIA LEMESOU",
      "subDistrict": "ANATOLIKES LEMESOU",
      "image": "Α-3076-0175-BUILDING-S.jpg"
    },
    {
      "id": "Α-3077-0036",
      "lat": 34.697176,
      "lon": 33.028982,
      "type": "PUBLIC",
      "capacity": "200",
      "signNumber": "0036",
      "address": "IOANNE DAMASKENOU 1 ELENE KORT,L/SOS( AP. PETROU&PAULOU)",
      "district": "EPARCHIA LEMESOU",
      "subDistrict": "ANATOLIKES LEMESOU",
      "image": "Α-3077-0036-BUILDING-S.jpg"
    },
    {
      "id": "Α-3077-0212",
      "lat": 34.696682,
      "lon": 33.031967,
      "type": "PUBLIC",
      "capacity": "130",
      "signNumber": "0212",
      "address": "LEOF. SPUROU KUPRIANOU & SPORADON, L/SOS (KAPSALOS)",
      "district": "EPARCHIA LEMESOU",
      "subDistrict": "ANATOLIKES LEMESOU",
      "image": "Α-3077-0212-BUILDING-S.jpg"
    },
    {
      "id": "Α-3080-0029",
      "lat": 34.70232,
      "lon": 33.02625,
      "type": "PUBLIC",
      "capacity": "162",
      "signNumber": "0029",
      "address": "STELIOU KURIAKIDE 11A SAKSEMO KORT 7,L/SOS( AP. PETROU&PAULOU)",
      "district": "EPARCHIA LEMESOU",
      "subDistrict": "ANATOLIKES LEMESOU",
      "image": "Α-3080-0029-BUILDING-S.jpg"
    },
    {
      "id": "Α-3080-0180",
      "lat": 34.6968,
      "lon": 33.0207,
      "type": "PUBLIC",
      "capacity": "90",
      "signNumber": "0180",
      "address": "TITANON 22A, L/SOS( AP. PETROU&PAULOU)",
      "district": "EPARCHIA LEMESOU",
      "subDistrict": "ANATOLIKES LEMESOU",
      "image": "Α-3080-0180-BUILDING-S.jpg"
    },
    {
      "id": "Α-3080-0214",
      "lat": 34.69545,
      "lon": 33.01824,
      "type": "PUBLIC",
      "capacity": "55",
      "signNumber": "0214",
      "address": "IOANNE STULIANOU 5, L/SOS (AG. GEORGIOS CHAB.)",
      "district": "EPARCHIA LEMESOU",
      "subDistrict": "ANATOLIKES LEMESOU",
      "image": "Α-3080-0214-BUILDING-S.jpg"
    },
    {
      "id": "Α-3080-0221",
      "lat": 34.702456,
      "lon": 33.026521,
      "type": "PUBLIC",
      "capacity": "200",
      "signNumber": "0221",
      "address": "STELIOU KURIAKIDE 7 CSM HOUSE,L/SOS( AP. PETROU&PAULOU)",
      "district": "EPARCHIA LEMESOU",
      "subDistrict": "ANATOLIKES LEMESOU",
      "image": "Α-3080-0221-BUILDING-S.jpg"
    },
    {
      "id": "Α-3080-0427",
      "lat": 34.69914,
      "lon": 33.02103,
      "type": "PUBLIC",
      "capacity": "100",
      "signNumber": "0427",
      "address": "BASILEOS KONSTANTINOU 152 TWINS TSIRIO TOWER,L/SOS( AP. PETROU&PAULOU)",
      "district": "EPARCHIA LEMESOU",
      "subDistrict": "ANATOLIKES LEMESOU",
      "image": "Α-3080-0427-BUILDING-S.jpg"
    },
    {
      "id": "Α-3081-0224",
      "lat": 34.69734,
      "lon": 33.02585,
      "type": "PUBLIC",
      "capacity": "40",
      "signNumber": "0224",
      "address": "DEMETRE PSATHA 30, L/SOS( AP. PETROU&PAULOU)",
      "district": "EPARCHIA LEMESOU",
      "subDistrict": "ANATOLIKES LEMESOU",
      "image": "Α-3081-0224-BUILDING-S.jpg"
    },
    {
      "id": "Α-3082-0296",
      "lat": 34.699314,
      "lon": 33.031152,
      "type": "PUBLIC",
      "capacity": "150",
      "signNumber": "0296",
      "address": "AG. FULAKSEOS 179 KANSON HOUSE,L/SOS( AP. PETROU&PAULOU)",
      "district": "EPARCHIA LEMESOU",
      "subDistrict": "ANATOLIKES LEMESOU",
      "image": "Α-3082-0296-BUILDING-S.jpg"
    },
    {
      "id": "Α-3082-0017",
      "lat": 34.69982,
      "lon": 33.03285,
      "type": "PUBLIC",
      "capacity": "100",
      "signNumber": "0017",
      "address": "IEROU LOCHOU 8B, L/SOS (KAPSALOS)",
      "district": "EPARCHIA LEMESOU",
      "subDistrict": "ANATOLIKES LEMESOU",
      "image": "Α-3082-0017-BUILDING-S.jpg"
    },
    {
      "id": "Α-3083-0034",
      "lat": 34.697144,
      "lon": 33.03281,
      "type": "PUBLIC",
      "capacity": "150",
      "signNumber": "0034",
      "address": "AG. FULAKSEOS 155, L/SOS (KAPSALOS)",
      "district": "EPARCHIA LEMESOU",
      "subDistrict": "ANATOLIKES LEMESOU",
      "image": "Α-3083-0034-BUILDING-S.jpg"
    },
    {
      "id": "Α-3083-0037Α",
      "lat": 34.69412,
      "lon": 33.03459,
      "type": "PUBLIC",
      "capacity": "200",
      "signNumber": "0037",
      "address": "AG. FULAKSEOS 129-131, L/SOS (KAPSALOS)",
      "district": "EPARCHIA LEMESOU",
      "subDistrict": "ANATOLIKES LEMESOU",
      "image": "Α-3083-0037Α-BUILDING-S.jpg"
    },
    {
      "id": "Α-3083-0037Β",
      "lat": 34.69412,
      "lon": 33.03459,
      "type": "PUBLIC",
      "capacity": "100",
      "signNumber": "0037",
      "address": "AG. FULAKSEOS 129-131, L/SOS (KAPSALOS)",
      "district": "EPARCHIA LEMESOU",
      "subDistrict": "ANATOLIKES LEMESOU",
      "image": "Α-3083-0037Β-BUILDING-S.jpg"
    },
    {
      "id": "Α-3083-0291",
      "lat": 34.702732,
      "lon": 33.036791,
      "type": "PUBLIC",
      "capacity": "120",
      "signNumber": "0291",
      "address": "PRIGKEPISSES ALEKSIAS 49, L/SOS (KAPSALOS)",
      "district": "EPARCHIA LEMESOU",
      "subDistrict": "ANATOLIKES LEMESOU",
      "image": "Α-3083-0291-BUILDING-S.jpg"
    },
    {
      "id": "Α-3083-0281",
      "lat": 34.69666,
      "lon": 33.03359,
      "type": "PUBLIC",
      "capacity": "35",
      "signNumber": "0281",
      "address": "AG. FULAKSEOS 180, L/SOS (KAPSALOS)",
      "district": "EPARCHIA LEMESOU",
      "subDistrict": "ANATOLIKES LEMESOU",
      "image": "Α-3083-0281-BUILDING-S.jpg"
    },
    {
      "id": "Α-3083-0012",
      "lat": 34.69767,
      "lon": 33.03627,
      "type": "PUBLIC",
      "capacity": "140",
      "signNumber": "0012",
      "address": "LEOF. SPUROU KUPRIANOU 145, L/SOS (KAPSALOS)",
      "district": "EPARCHIA LEMESOU",
      "subDistrict": "ANATOLIKES LEMESOU",
      "image": "Α-3083-0012-BUILDING-S.jpg"
    },
    {
      "id": "Α-3083-0018",
      "lat": 34.6983,
      "lon": 33.03252,
      "type": "PUBLIC",
      "capacity": "200",
      "signNumber": "0018",
      "address": "AG. FULAKSEOS 194 PANDORA KORT,L/SOS (KAPSALOS)",
      "district": "EPARCHIA LEMESOU",
      "subDistrict": "ANATOLIKES LEMESOU",
      "image": "Α-3083-0018-BUILDING-S.jpg"
    },
    {
      "id": "Α-3083-0021",
      "lat": 34.695553,
      "lon": 33.03412,
      "type": "PUBLIC",
      "capacity": "200",
      "signNumber": "0021",
      "address": "AG. FULAKSEOS 168 ALFA TRAPEZA,L/SOS (KAPSALOS)",
      "district": "EPARCHIA LEMESOU",
      "subDistrict": "ANATOLIKES LEMESOU",
      "image": "Α-3083-0021-BUILDING-S.jpg"
    },
    {
      "id": "Α-3083-0408",
      "lat": 34.69708,
      "lon": 33.0338,
      "type": "PUBLIC",
      "capacity": "130",
      "signNumber": "0408",
      "address": "AG. FULAKSEOS & LEOF. SPUROU KUPRIANOU, L/SOS (KAPSALOS)",
      "district": "EPARCHIA LEMESOU",
      "subDistrict": "ANATOLIKES LEMESOU",
      "image": "Α-3083-0408-BUILDING-S.jpg"
    },
    {
      "id": "Α-3083-0409",
      "lat": 34.69708,
      "lon": 33.0338,
      "type": "PUBLIC",
      "capacity": "130",
      "signNumber": "0409",
      "address": "AG. FULAKSEOS & LEOF. SPUROU KUPRIANOU, L/SOS (KAPSALOS)",
      "district": "EPARCHIA LEMESOU",
      "subDistrict": "ANATOLIKES LEMESOU",
      "image": "Α-3083-0409-BUILDING-S.jpg"
    },
    {
      "id": "Α-3085-0294",
      "lat": 34.68781,
      "lon": 33.03311,
      "type": "PUBLIC",
      "capacity": "100",
      "signNumber": "0294",
      "address": "IOANNE POLEME 23, L/SOS( AP. PETROU&PAULOU)",
      "district": "EPARCHIA LEMESOU",
      "subDistrict": "ANATOLIKES LEMESOU",
      "image": "Α-3085-0294-BUILDING-S.jpg"
    },
    {
      "id": "Α-3085-0040",
      "lat": 34.68607,
      "lon": 33.03279,
      "type": "PUBLIC",
      "capacity": "100",
      "signNumber": "0040",
      "address": "KOSTA OURANE 5, L/SOS( AP. PETROU&PAULOU)",
      "district": "EPARCHIA LEMESOU",
      "subDistrict": "ANATOLIKES LEMESOU",
      "image": "Α-3085-0040-BUILDING-S.jpg"
    },
    {
      "id": "Α-3086-0035",
      "lat": 34.696585,
      "lon": 33.03287,
      "type": "PUBLIC",
      "capacity": "200",
      "signNumber": "0035",
      "address": "AG. FULAKSEOS & LEOF. SPUROU KUPRIANOU CTL EUROCOLLEGE,L/SOS (KAPSALOS)",
      "district": "EPARCHIA LEMESOU",
      "subDistrict": "ANATOLIKES LEMESOU",
      "image": "Α-3086-0035-BUILDING-S.jpg"
    },
    {
      "id": "Α-3087-0301",
      "lat": 34.693597,
      "lon": 33.034696,
      "type": "PUBLIC",
      "capacity": "120",
      "signNumber": "0301",
      "address": "AIGUPTOU 1 & AG. FULAKSEOS, L/SOS (KAPSALOS)",
      "district": "EPARCHIA LEMESOU",
      "subDistrict": "ANATOLIKES LEMESOU",
      "image": "Α-3087-0301-BUILDING-S.jpg"
    },
    {
      "id": "Α-3087-0305",
      "lat": 34.69074,
      "lon": 33.03591,
      "type": "PUBLIC",
      "capacity": "100",
      "signNumber": "0305",
      "address": "AG. FULAKSEOS 95, L/SOS (KAPSALOS)",
      "district": "EPARCHIA LEMESOU",
      "subDistrict": "ANATOLIKES LEMESOU",
      "image": "Α-3087-0305-BUILDING-S.jpg"
    },
    {
      "id": "Α-3087-0038",
      "lat": 34.69173,
      "lon": 33.03559,
      "type": "PUBLIC",
      "capacity": "105",
      "signNumber": "0038",
      "address": "AG. FULAKSEOS 136 ANNISA KORT,L/SOS (KAPSALOS)",
      "district": "EPARCHIA LEMESOU",
      "subDistrict": "ANATOLIKES LEMESOU",
      "image": "Α-3087-0038-BUILDING-S.jpg"
    },
    {
      "id": "Α-3087-0039",
      "lat": 34.69191,
      "lon": 33.03546,
      "type": "PUBLIC",
      "capacity": "156",
      "signNumber": "0039",
      "address": "AG. FULAKSEOS 136 MARIELLA KORT,L/SOS (KAPSALOS)",
      "district": "EPARCHIA LEMESOU",
      "subDistrict": "ANATOLIKES LEMESOU",
      "image": "Α-3087-0039-BUILDING-S.jpg"
    },
    {
      "id": "Α-3087-0019",
      "lat": 34.69373,
      "lon": 33.03457,
      "type": "PUBLIC",
      "capacity": "100",
      "signNumber": "0019",
      "address": "AG. FULAKSEOS 154, L/SOS (KAPSALOS)",
      "district": "EPARCHIA LEMESOU",
      "subDistrict": "ANATOLIKES LEMESOU",
      "image": "Α-3087-0019-BUILDING-S.jpg"
    },
    {
      "id": "Α-3087-0020",
      "lat": 34.688987,
      "lon": 33.037285,
      "type": "PUBLIC",
      "capacity": "200",
      "signNumber": "0020",
      "address": "KRETES 1, AG.FULAKSEOS + ANAKSARCHOU,CONSTANCIA COURT CONSTANCIA COURT,L/SOS (KAPSALOS)",
      "district": "EPARCHIA LEMESOU",
      "subDistrict": "ANATOLIKES LEMESOU",
      "image": "Α-3087-0020-BUILDING-S.jpg"
    },
    {
      "id": "Α-3087-0220",
      "lat": 34.691408,
      "lon": 33.039,
      "type": "PUBLIC",
      "capacity": "114",
      "signNumber": "0220",
      "address": "KRETES 36, L/SOS (KAPSALOS)",
      "district": "EPARCHIA LEMESOU",
      "subDistrict": "ANATOLIKES LEMESOU",
      "image": "Α-3087-0220-BUILDING-S.jpg"
    },
    {
      "id": "Α-3087-0431",
      "lat": 34.6888,
      "lon": 33.03662,
      "type": "PUBLIC",
      "capacity": "100",
      "signNumber": "0431",
      "address": "AG. FULAKSEOS 81, L/SOS (KAPSALOS)",
      "district": "EPARCHIA LEMESOU",
      "subDistrict": "ANATOLIKES LEMESOU",
      "image": "Α-3087-0431-BUILDING-S.jpg"
    },
    {
      "id": "Α-3087-0437",
      "lat": 34.694072,
      "lon": 33.037088,
      "type": "PUBLIC",
      "capacity": "35",
      "signNumber": "0437",
      "address": "AIGUPTOU 19A, L/SOS (KAPSALOS)",
      "district": "EPARCHIA LEMESOU",
      "subDistrict": "ANATOLIKES LEMESOU",
      "image": "Α-3087-0437-BUILDING-S.jpg"
    },
    {
      "id": "Α-3090-0002",
      "lat": 34.688743,
      "lon": 33.044477,
      "type": "PUBLIC",
      "capacity": "100",
      "signNumber": "0002",
      "address": "AG. ZONES 50 ARIANTHI COURT,L/SOS  (AG. ZONE)",
      "district": "EPARCHIA LEMESOU",
      "subDistrict": "ANATOLIKES LEMESOU",
      "image": "Α-3090-0002-BUILDING-S.jpg"
    },
    {
      "id": "Α-3090-0191",
      "lat": 34.69081,
      "lon": 33.043257,
      "type": "PUBLIC",
      "capacity": "80",
      "signNumber": "0191",
      "address": "MOUSAIOU 16, L/SOS (AG. NEKTARIOS)",
      "district": "EPARCHIA LEMESOU",
      "subDistrict": "ANATOLIKES LEMESOU",
      "image": "Α-3090-0191-BUILDING-S.jpg"
    },
    {
      "id": "Α-3090-0442",
      "lat": 34.68866,
      "lon": 33.043292,
      "type": "PUBLIC",
      "capacity": "200",
      "signNumber": "0442",
      "address": "DEMETRE LIPERTE 12 & PLATONOS AMERIKANOS KORT,L/SOS (AG. NEKTARIOS)",
      "district": "EPARCHIA LEMESOU",
      "subDistrict": "ANATOLIKES LEMESOU",
      "image": "Α-3090-0442-BUILDING-S.jpg"
    },
    {
      "id": "Α-3090-0449",
      "lat": 34.69217,
      "lon": 33.041323,
      "type": "PUBLIC",
      "capacity": "130",
      "signNumber": "0449",
      "address": "PLATONOS 52 PNEUMATIKO KENTRO EKKLESIAS AG. NEKTARIOU,L/SOS (AG. NEKTARIOS)",
      "district": "EPARCHIA LEMESOU",
      "subDistrict": "ANATOLIKES LEMESOU",
      "image": "Α-3090-0449-BUILDING-S.jpg"
    },
    {
      "id": "Α-3091-0003Α",
      "lat": 34.69412,
      "lon": 33.050965,
      "type": "PUBLIC",
      "capacity": "200",
      "signNumber": "0003",
      "address": "OMEROU 61 & DABAKE MEGARO TZOANNA,L/SOS (AG. NIKOLAOS)",
      "district": "EPARCHIA LEMESOU",
      "subDistrict": "ANATOLIKES LEMESOU",
      "image": "Α-3091-0003Α-BUILDING-S.jpg"
    },
    {
      "id": "Α-3091-0003Β",
      "lat": 34.69412,
      "lon": 33.050965,
      "type": "PUBLIC",
      "capacity": "200",
      "signNumber": "0003",
      "address": "OMEROU 61 & DABAKE MEGARO TZOANNA,L/SOS (AG. NIKOLAOS)",
      "district": "EPARCHIA LEMESOU",
      "subDistrict": "ANATOLIKES LEMESOU",
      "image": "Α-3091-0003Β-BUILDING-S.jpg"
    },
    {
      "id": "Α-3091-0014",
      "lat": 34.689827,
      "lon": 33.045402,
      "type": "PUBLIC",
      "capacity": "130",
      "signNumber": "0014",
      "address": "GLAUKOU ALITHERSE 7, L/SOS (AG. NEKTARIOS)",
      "district": "EPARCHIA LEMESOU",
      "subDistrict": "ANATOLIKES LEMESOU",
      "image": "Α-3091-0014-BUILDING-S.jpg"
    },
    {
      "id": "Α-3091-0024",
      "lat": 34.69403,
      "lon": 33.051339,
      "type": "PUBLIC",
      "capacity": "100",
      "signNumber": "0024",
      "address": "OMEROU 59 & DABAKE, L/SOS (AG. NIKOLAOS)",
      "district": "EPARCHIA LEMESOU",
      "subDistrict": "ANATOLIKES LEMESOU",
      "image": "Α-3091-0024-BUILDING-S.jpg"
    },
    {
      "id": "Α-3091-0205",
      "lat": 34.69229,
      "lon": 33.051248,
      "type": "PUBLIC",
      "capacity": "75",
      "signNumber": "0205",
      "address": "BOUDAPESTES 4, L/SOS (AG. NEKTARIOS)",
      "district": "EPARCHIA LEMESOU",
      "subDistrict": "ANATOLIKES LEMESOU",
      "image": "Α-3091-0205-BUILDING-S.jpg"
    },
    {
      "id": "Α-3091-0282",
      "lat": 34.693055,
      "lon": 33.048935,
      "type": "PUBLIC",
      "capacity": "25",
      "signNumber": "0282",
      "address": "IAKOBOU PATATSOU 3 & MICHAEL PARIDOU, L/SOS (AG. NEKTARIOS)",
      "district": "EPARCHIA LEMESOU",
      "subDistrict": "ANATOLIKES LEMESOU",
      "image": "Α-3091-0282-BUILDING-S.jpg"
    },
    {
      "id": "Α-3095-0022",
      "lat": 34.69005,
      "lon": 33.054005,
      "type": "PUBLIC",
      "capacity": "200",
      "signNumber": "0022",
      "address": "OMEROU 38 & NIKES PAKOVA CENTER,L/SOS (AG. NIKOLAOS)",
      "district": "EPARCHIA LEMESOU",
      "subDistrict": "ANATOLIKES LEMESOU",
      "image": "Α-3095-0022-BUILDING-S.jpg"
    },
    {
      "id": "Α-3095-0023",
      "lat": 34.690055,
      "lon": 33.05348,
      "type": "PUBLIC",
      "capacity": "200",
      "signNumber": "0023",
      "address": "OMEROU 23 + PORFURIOU DIKAIOU HOMER COMPLEX,L/SOS (AG. NIKOLAOS)",
      "district": "EPARCHIA LEMESOU",
      "subDistrict": "ANATOLIKES LEMESOU",
      "image": "Α-3095-0023-BUILDING-S.jpg"
    },
    {
      "id": "Α-3095-0189",
      "lat": 34.689493,
      "lon": 33.04573,
      "type": "PUBLIC",
      "capacity": "37",
      "signNumber": "0189",
      "address": "25ES MARTIOU 10 & NIKODEMOU MULONA SAKSEMO 6 KORT,L/SOS (AG. NEKTARIOS)",
      "district": "EPARCHIA LEMESOU",
      "subDistrict": "ANATOLIKES LEMESOU",
      "image": "Α-3095-0189-BUILDING-S.jpg"
    },
    {
      "id": "Α-3095-0194",
      "lat": 34.68941,
      "lon": 33.05054,
      "type": "PUBLIC",
      "capacity": "50",
      "signNumber": "0194",
      "address": "PINDAROU 21 & KIMONOS, L/SOS (AG. NEKTARIOS)",
      "district": "EPARCHIA LEMESOU",
      "subDistrict": "ANATOLIKES LEMESOU",
      "image": "Α-3095-0194-BUILDING-S.jpg"
    },
    {
      "id": "Α-3100-0182",
      "lat": 34.69296,
      "lon": 33.056115,
      "type": "PUBLIC",
      "capacity": "130",
      "signNumber": "0182",
      "address": "AG. AIKATERINES & AISOPOU 2 PNO HOUSE,L/SOS (AG. NIKOLAOS)",
      "district": "EPARCHIA LEMESOU",
      "subDistrict": "ANATOLIKES LEMESOU",
      "image": "Α-3100-0182-BUILDING-S.jpg"
    },
    {
      "id": "Α-3101-0062",
      "lat": 34.689286,
      "lon": 33.0596,
      "type": "PUBLIC",
      "capacity": "130",
      "signNumber": "0062",
      "address": "AUGOUSTOU PIKAR & CHRISTOU OIKONOMIDE, L/SOS (NEAPOLE)",
      "district": "EPARCHIA LEMESOU",
      "subDistrict": "ANATOLIKES LEMESOU",
      "image": "Α-3101-0062-BUILDING-S.jpg"
    },
    {
      "id": "Α-3101-0056Α",
      "lat": 34.69115,
      "lon": 33.068292,
      "type": "PUBLIC",
      "capacity": "110",
      "signNumber": "0056",
      "address": "GRIBA DIGENE 132 KANIKA SILBER CHAOUS 2,L/SOS (NEAPOLE)",
      "district": "EPARCHIA LEMESOU",
      "subDistrict": "ANATOLIKES LEMESOU",
      "image": "Α-3101-0056Α-BUILDING-S.jpg"
    },
    {
      "id": "Α-3101-0056Β",
      "lat": 34.69115,
      "lon": 33.068292,
      "type": "PUBLIC",
      "capacity": "110",
      "signNumber": "0056",
      "address": "GRIBA DIGENE 132 KANIKA SILBER CHAOUS 2,L/SOS (NEAPOLE)",
      "district": "EPARCHIA LEMESOU",
      "subDistrict": "ANATOLIKES LEMESOU",
      "image": "Α-3101-0056Β-BUILDING-S.jpg"
    },
    {
      "id": "Α-3101-0057Α",
      "lat": 34.691305,
      "lon": 33.068158,
      "type": "PUBLIC",
      "capacity": "110",
      "signNumber": "0057",
      "address": "GRIBA DIGENE 130 KANIKA SILBER CHAOUS 1,L/SOS (NEAPOLE)",
      "district": "EPARCHIA LEMESOU",
      "subDistrict": "ANATOLIKES LEMESOU",
      "image": "Α-3101-0057Α-BUILDING-S.jpg"
    },
    {
      "id": "Α-3101-0057Β",
      "lat": 34.691305,
      "lon": 33.068158,
      "type": "PUBLIC",
      "capacity": "110",
      "signNumber": "0057",
      "address": "GRIBA DIGENE 130 KANIKA SILBER CHAOUS 1,L/SOS (NEAPOLE)",
      "district": "EPARCHIA LEMESOU",
      "subDistrict": "ANATOLIKES LEMESOU",
      "image": "Α-3101-0057Β-BUILDING-S.jpg"
    },
    {
      "id": "Α-3101-0058Α",
      "lat": 34.691475,
      "lon": 33.068033,
      "type": "PUBLIC",
      "capacity": "125",
      "signNumber": "0058",
      "address": "GRIBA DIGENE 128 BLUE DIAMOND,L/SOS (NEAPOLE)",
      "district": "EPARCHIA LEMESOU",
      "subDistrict": "ANATOLIKES LEMESOU",
      "image": "Α-3101-0058Α-BUILDING-S.jpg"
    },
    {
      "id": "Α-3101-0058Β",
      "lat": 34.691475,
      "lon": 33.068033,
      "type": "PUBLIC",
      "capacity": "125",
      "signNumber": "0058",
      "address": "GRIBA DIGENE 128 BLUE DIAMOND,L/SOS (NEAPOLE)",
      "district": "EPARCHIA LEMESOU",
      "subDistrict": "ANATOLIKES LEMESOU",
      "image": "Α-3101-0058Β-BUILDING-S.jpg"
    },
    {
      "id": "Α-3101-0161",
      "lat": 34.68975,
      "lon": 33.064088,
      "type": "PUBLIC",
      "capacity": "80",
      "signNumber": "0161",
      "address": "BRUKSELLON 15, L/SOS (NEAPOLE)",
      "district": "EPARCHIA LEMESOU",
      "subDistrict": "ANATOLIKES LEMESOU",
      "image": "Α-3101-0161-BUILDING-S.jpg"
    },
    {
      "id": "Α-3101-0156",
      "lat": 34.693444,
      "lon": 33.064686,
      "type": "PUBLIC",
      "capacity": "130",
      "signNumber": "0156",
      "address": "GRIBA DIGENE 90 BELORIENT COURT,L/SOS (NEAPOLE)",
      "district": "EPARCHIA LEMESOU",
      "subDistrict": "ANATOLIKES LEMESOU",
      "image": "Α-3101-0156-BUILDING-S.jpg"
    },
    {
      "id": "Α-3101-0030",
      "lat": 34.692255,
      "lon": 33.062645,
      "type": "PUBLIC",
      "capacity": "300",
      "signNumber": "0030",
      "address": "GRIBA DIGENE 93, L/SOS (AG. NIKOLAOS)",
      "district": "EPARCHIA LEMESOU",
      "subDistrict": "ANATOLIKES LEMESOU",
      "image": "Α-3101-0030-BUILDING-S.jpg"
    },
    {
      "id": "Α-3101-0031",
      "lat": 34.692206,
      "lon": 33.062895,
      "type": "PUBLIC",
      "capacity": "200",
      "signNumber": "0031",
      "address": "GRIBA DIGENE 95, L/SOS (AG. NIKOLAOS)",
      "district": "EPARCHIA LEMESOU",
      "subDistrict": "ANATOLIKES LEMESOU",
      "image": "Α-3101-0031-BUILDING-S.jpg"
    },
    {
      "id": "Α-3101-0032Α",
      "lat": 34.693077,
      "lon": 33.06397,
      "type": "PUBLIC",
      "capacity": "190",
      "signNumber": "0032",
      "address": "GRIBA DIGENE 105, L/SOS (AG. NIKOLAOS)",
      "district": "EPARCHIA LEMESOU",
      "subDistrict": "ANATOLIKES LEMESOU",
      "image": "Α-3101-0032Α-BUILDING-S.jpg"
    },
    {
      "id": "Α-3101-0032Β",
      "lat": 34.693078,
      "lon": 33.063972,
      "type": "PUBLIC",
      "capacity": "60",
      "signNumber": "0032",
      "address": "GRIBA DIGENE 105, L/SOS (AG. NIKOLAOS)",
      "district": "EPARCHIA LEMESOU",
      "subDistrict": "ANATOLIKES LEMESOU",
      "image": "Α-3101-0032Β-BUILDING-S.jpg"
    },
    {
      "id": "Α-3101-0033",
      "lat": 34.69452,
      "lon": 33.06525,
      "type": "PUBLIC",
      "capacity": "150",
      "signNumber": "0033",
      "address": "GRIBA DIGENE 123 & DAMONOS INTERSHIP HOUSE,L/SOS (AG. NIKOLAOS)",
      "district": "EPARCHIA LEMESOU",
      "subDistrict": "ANATOLIKES LEMESOU",
      "image": "Α-3101-0033-BUILDING-S.jpg"
    },
    {
      "id": "Α-3101-0279",
      "lat": 34.692902,
      "lon": 33.064039,
      "type": "PUBLIC",
      "capacity": "150",
      "signNumber": "0279",
      "address": "GRIBA DIGENE 84 SABBIDES KORT,L/SOS (NEAPOLE)",
      "district": "EPARCHIA LEMESOU",
      "subDistrict": "ANATOLIKES LEMESOU",
      "image": "Α-3101-0279-BUILDING-S.jpg"
    },
    {
      "id": "Α-3101-0443",
      "lat": 34.69344,
      "lon": 33.064125,
      "type": "PUBLIC",
      "capacity": "120",
      "signNumber": "0443",
      "address": "GRIBA DIGENE 109, L/SOS (AG. NIKOLAOS)",
      "district": "EPARCHIA LEMESOU",
      "subDistrict": "ANATOLIKES LEMESOU",
      "image": "Α-3101-0443-BUILDING-S.jpg"
    },
    {
      "id": "Α-3105-9608Α",
      "lat": 34.68373,
      "lon": 33.058119,
      "type": "PUBLIC",
      "capacity": "125",
      "signNumber": "9608",
      "address": "28es OKTOBRIOU ITERA ENAERIOS KOMPLEKS,L/SOS (NEAPOLE)",
      "district": "EPARCHIA LEMESOU",
      "subDistrict": "ANATOLIKES LEMESOU",
      "image": "Α-3105-9608Α-BUILDING-S.jpg"
    },
    {
      "id": "Α-3106-0063",
      "lat": 34.686438,
      "lon": 33.059455,
      "type": "PUBLIC",
      "capacity": "150",
      "signNumber": "0063",
      "address": "TZON KENNENTU 8 IRIS & ERMES KORT,L/SOS (NEAPOLE)",
      "district": "EPARCHIA LEMESOU",
      "subDistrict": "ANATOLIKES LEMESOU",
      "image": "Α-3106-0063-BUILDING-S.jpg"
    },
    {
      "id": "Α-3105-9608Β",
      "lat": 34.68373,
      "lon": 33.058119,
      "type": "PUBLIC",
      "capacity": "125",
      "signNumber": "9608",
      "address": "28es OKTOBRIOU ITERA ENAERIOS KOMPLEKS,L/SOS (NEAPOLE)",
      "district": "EPARCHIA LEMESOU",
      "subDistrict": "ANATOLIKES LEMESOU",
      "image": "Α-3105-9608Β-BUILDING-S.jpg"
    },
    {
      "id": "Α-3106-0064",
      "lat": 34.686458,
      "lon": 33.059748,
      "type": "PUBLIC",
      "capacity": "70",
      "signNumber": "0064",
      "address": "TZON KENNENTU 8 IRIS & ERMES KORT,L/SOS (NEAPOLE)",
      "district": "EPARCHIA LEMESOU",
      "subDistrict": "ANATOLIKES LEMESOU",
      "image": "Α-3106-0064-BUILDING-S.jpg"
    },
    {
      "id": "Α-3106-0153",
      "lat": 34.686673,
      "lon": 33.055817,
      "type": "PUBLIC",
      "capacity": "120",
      "signNumber": "0153",
      "address": "KONSTANTINOU PAPAREGOPOULOU 9 FRIMA CHAOUS,L/SOS (NEAPOLE)",
      "district": "EPARCHIA LEMESOU",
      "subDistrict": "ANATOLIKES LEMESOU",
      "image": "Α-3106-0153-BUILDING-S.jpg"
    },
    {
      "id": "Α-3106-0154",
      "lat": 34.686495,
      "lon": 33.05593,
      "type": "PUBLIC",
      "capacity": "40",
      "signNumber": "0154",
      "address": "KONSTANTINOU PAPAREGOPOULOU 15, L/SOS (NEAPOLE)",
      "district": "EPARCHIA LEMESOU",
      "subDistrict": "ANATOLIKES LEMESOU",
      "image": "Α-3106-0154-BUILDING-S.jpg"
    },
    {
      "id": "Α-3106-0152",
      "lat": 34.685233,
      "lon": 33.061224,
      "type": "PUBLIC",
      "capacity": "150",
      "signNumber": "0152",
      "address": "28es OKTOBRIOU 333 ARIADNES CHAOUS,L/SOS (NEAPOLE)",
      "district": "EPARCHIA LEMESOU",
      "subDistrict": "ANATOLIKES LEMESOU",
      "image": "Α-3106-0152-BUILDING-S.jpg"
    },
    {
      "id": "Α-3106-0258",
      "lat": 34.686355,
      "lon": 33.05836,
      "type": "PUBLIC",
      "capacity": "130",
      "signNumber": "0258",
      "address": "TZON KENNENTU & ERAKLE ARAOUZOU STEFEL KORT,L/SOS (NEAPOLE)",
      "district": "EPARCHIA LEMESOU",
      "subDistrict": "ANATOLIKES LEMESOU",
      "image": "Α-3106-0258-BUILDING-S.jpg"
    },
    {
      "id": "Α-3106-0358",
      "lat": 34.685649,
      "lon": 33.060973,
      "type": "PUBLIC",
      "capacity": "130",
      "signNumber": "0358",
      "address": "CHRUSE DEMETRIADE 3, L/SOS (NEAPOLE)",
      "district": "EPARCHIA LEMESOU",
      "subDistrict": "ANATOLIKES LEMESOU",
      "image": "Α-3106-0358-BUILDING-S.jpg"
    },
    {
      "id": "Α-3106-9618",
      "lat": 34.686724,
      "lon": 33.059994,
      "type": "PUBLIC",
      "capacity": "70",
      "signNumber": "9618",
      "address": "TZON KENNENTU 10 TZOUPITER,L/SOS (NEAPOLE)",
      "district": "EPARCHIA LEMESOU",
      "subDistrict": "ANATOLIKES LEMESOU",
      "image": "Α-3106-9618-BUILDING-S.jpg"
    },
    {
      "id": "Α-3106-9635",
      "lat": 34.686342,
      "lon": 33.05902,
      "type": "PUBLIC",
      "capacity": "75",
      "signNumber": "9635",
      "address": "TZON KENNENTU 4 GLAUKOS CHAOUS,L/SOS (NEAPOLE)",
      "district": "EPARCHIA LEMESOU",
      "subDistrict": "ANATOLIKES LEMESOU",
      "image": "Α-3106-9635-BUILDING-S.jpg"
    },
    {
      "id": "Α-3107-0059Α",
      "lat": 34.68927,
      "lon": 33.067525,
      "type": "PUBLIC",
      "capacity": "125",
      "signNumber": "0059",
      "address": "28ES OKTOBRIOU DEBENHAMS OLYMPIA,L/SOS (NEAPOLE)",
      "district": "EPARCHIA LEMESOU",
      "subDistrict": "ANATOLIKES LEMESOU",
      "image": "Α-3107-0059Α-BUILDING-S.jpg"
    },
    {
      "id": "Α-3107-0059Β",
      "lat": 34.68927,
      "lon": 33.067525,
      "type": "PUBLIC",
      "capacity": "125",
      "signNumber": "0059",
      "address": "28ES OKTOBRIOU DEBENHAMS OLYMPIA,L/SOS (NEAPOLE)",
      "district": "EPARCHIA LEMESOU",
      "subDistrict": "ANATOLIKES LEMESOU",
      "image": "Α-3107-0059Β-BUILDING-S.jpg"
    },
    {
      "id": "Α-3107-0060Α",
      "lat": 34.68927,
      "lon": 33.067525,
      "type": "PUBLIC",
      "capacity": "125",
      "signNumber": "0060",
      "address": "28ES OKTOBRIOU DEBENHAMS OLYMPIA,L/SOS (NEAPOLE)",
      "district": "EPARCHIA LEMESOU",
      "subDistrict": "ANATOLIKES LEMESOU",
      "image": "Α-3107-0060Α-BUILDING-S.jpg"
    },
    {
      "id": "Α-3107-0060Β",
      "lat": 34.68927,
      "lon": 33.067525,
      "type": "PUBLIC",
      "capacity": "125",
      "signNumber": "0060",
      "address": "28ES OKTOBRIOU DEBENHAMS OLYMPIA,L/SOS (NEAPOLE)",
      "district": "EPARCHIA LEMESOU",
      "subDistrict": "ANATOLIKES LEMESOU",
      "image": "Α-3107-0060Β-BUILDING-S.jpg"
    },
    {
      "id": "Α-3107-0260",
      "lat": 34.68889,
      "lon": 33.069079,
      "type": "PUBLIC",
      "capacity": "100",
      "signNumber": "0260",
      "address": "28es OKTOBRIOU & DANTE ORATES BEACH HOTEL,L/SOS (NEAPOLE)",
      "district": "EPARCHIA LEMESOU",
      "subDistrict": "ANATOLIKES LEMESOU",
      "image": "Α-3107-0260-BUILDING-S.jpg"
    },
    {
      "id": "Α-3107-0253Α",
      "lat": 34.688758,
      "lon": 33.067163,
      "type": "PUBLIC",
      "capacity": "125",
      "signNumber": "0253",
      "address": "ALEKSANDROU UPSELANTE 6 ATHENA KORT,L/SOS (NEAPOLE)",
      "district": "EPARCHIA LEMESOU",
      "subDistrict": "ANATOLIKES LEMESOU",
      "image": "Α-3107-0253Α-BUILDING-S.jpg"
    },
    {
      "id": "Α-3107-0253Β",
      "lat": 34.688758,
      "lon": 33.067163,
      "type": "PUBLIC",
      "capacity": "125",
      "signNumber": "0253",
      "address": "ALEKSANDROU UPSELANTE 6 ATHENA KORT,L/SOS (NEAPOLE)",
      "district": "EPARCHIA LEMESOU",
      "subDistrict": "ANATOLIKES LEMESOU",
      "image": "Α-3107-0253Β-BUILDING-S.jpg"
    },
    {
      "id": "Α-3110-9318Α",
      "lat": 34.70298,
      "lon": 33.0215,
      "type": "PUBLIC",
      "capacity": "80",
      "signNumber": "9318",
      "address": "DOMNITSAS LANITOU IEROS NAOS AG. ARSENIOU,L/SOS (EKALE)",
      "district": "EPARCHIA LEMESOU",
      "subDistrict": "ANATOLIKES LEMESOU",
      "image": "Α-3110-9318Α-BUILDING-S.jpg"
    },
    {
      "id": "Α-3110-9318Β",
      "lat": 34.70298,
      "lon": 33.0215,
      "type": "PUBLIC",
      "capacity": "80",
      "signNumber": "9318",
      "address": "DOMNITSAS LANITOU IEROS NAOS AG. ARSENIOU,L/SOS (EKALE)",
      "district": "EPARCHIA LEMESOU",
      "subDistrict": "ANATOLIKES LEMESOU",
      "image": "Α-3110-9318Β-BUILDING-S.jpg"
    },
    {
      "id": "Α-3110-9318Γ",
      "lat": 34.70298,
      "lon": 33.0215,
      "type": "PUBLIC",
      "capacity": "130",
      "signNumber": "9318",
      "address": "DOMNITSAS LANITOU IEROS NAOS AG. ARSENIOU,L/SOS (EKALE)",
      "district": "EPARCHIA LEMESOU",
      "subDistrict": "ANATOLIKES LEMESOU",
      "image": "Α-3110-9318Γ-BUILDING-S.jpg"
    },
    {
      "id": "Α-3110-9318Δ",
      "lat": 34.70298,
      "lon": 33.0215,
      "type": "PUBLIC",
      "capacity": "130",
      "signNumber": "9318",
      "address": "DOMNITSAS LANITOU IEROS NAOS AG. ARSENIOU,L/SOS (EKALE)",
      "district": "EPARCHIA LEMESOU",
      "subDistrict": "ANATOLIKES LEMESOU",
      "image": "Α-3110-9318Δ-BUILDING-S.jpg"
    },